     2.11           OBSERVATION DATA    M (MIXED)           RINEX VERSION / TYPE
teqc  2018Jun8      root                20190613 05:21:48UTCPGM / RUN BY / DATE
Linux 2.4.21-27.ELsmp|Opteron|gcc|Linux 64|=+               COMMENT
teqc  2019Feb25     NOAA/NOS/NGS/CORS   20190613 03:57:10UTCCOMMENT
   0.000      (antenna height)                              COMMENT
 +39.72152587 (latitude)                                    COMMENT
-105.19287100 (longitude)                                   COMMENT
1819.921      (elevation)                                   COMMENT
BIT 2 OF LLI FLAGS DATA COLLECTED UNDER A/S CONDITION       COMMENT
 SNR is mapped to RINEX snr flag value [0-9]                COMMENT
  L1 & L2: min(max(int(snr_dBHz/6), 0), 9)                  COMMENT
teqc.e edited: all SBAS satellites excluded                 COMMENT
teqc.e edited: all QZSS satellites excluded                 COMMENT
CTMC                                                        MARKER NAME
1                                                           MARKER NUMBER
Steven Hagemann     CODOT                                   OBSERVER / AGENCY
4626K01856          TRIMBLE NETR5       48.01               REC # / TYPE / VERS
30167871            TRM55971.00     NONE                    ANT # / TYPE
 -1287787.7680 -4742178.3640  4055414.6140                  APPROX POSITION XYZ
        0.0000        0.0000        0.0000                  ANTENNA: DELTA H/E/N
     1     1                                                WAVELENGTH FACT L1/2
    11    L1    L2    L5    C1    P1    C2    P2    C5    S1# / TYPES OF OBSERV
          S2    S5                                          # / TYPES OF OBSERV
     5.0000                                                 INTERVAL
teqc.w windowed: start @ 2019 Jun 12 00:00:00.000           COMMENT
teqc.w windowed:  end  @ 2019 Jun 12 02:00:00.000           COMMENT
  2019     6    12     0     0    0.0000000     GPS         TIME OF FIRST OBS
    18                                                      LEAP SECONDS
                                                            END OF HEADER
 19  6 12  0  0  0.0000000  0 17G02R05G15G13G29R06R11R19G26R12G25G12
                                R04R20G05G21R21
 121885137.561 7  94975451.13345                  23193955.602
                  23193957.898                          44.300          30.400

 107267502.134 8  83430299.953 7                  20066603.656    20066603.750
                  20066608.000                          51.300          46.700

 125956641.731 7  98148067.270 6                  23968749.289
  23968754.109    23968754.457                          46.800          41.600

 124067177.778 7  96675739.90043                  23609191.148
                  23609196.375                          42.600          20.100

 106885395.088 8  83287280.010 8                  20339586.383
  20339590.266    20339590.379                          50.300          50.100

 109542491.909 7                                  20528217.469    20528215.098
                                                        43.400

 121960911.637 7  94858542.253 6                  22823327.047    22823326.316
                  22823332.215                          44.100          41.200

 130593152.606 4 101572496.691 4                  24413015.211    24413016.242
                  24413022.957                          29.400          29.900

 128677101.366 6 100267926.073 6                  24486444.211
  24486449.559    24486449.613                          41.100          38.000

 123557818.980 6                                  23130287.734    23130287.828
                                                        40.300

 118540615.311 7  92369351.155 7                  22557524.055
  22557531.922    22557531.215                          46.300          45.500

 126366635.639 7  98467539.827 6                  24046770.555
  24046775.141    24046775.547                          42.600          37.200

 125064136.002 7  97272173.294 6                  23354848.414    23354847.566
                  23354852.055                          42.900          38.000

 109577147.420 7  85226757.095 7                  20491476.750    20491474.965
                  20491481.094                          44.600          47.300

 109787013.516 8  85548358.165 7                  20891758.352
  20891762.820    20891762.582                          49.500          47.500

 124978806.489 6  97386077.47144                  23782663.242
                  23782667.883                          40.200          26.300

 109577036.994 8  85226464.957 7                  20477043.656    20477042.105
                  20477047.180                          49.500          45.200

 19  6 12  0  0  5.0000000  0 17G02R05G15G13G29R06R11R19G26R12G25G12
                                R04R20G05G21R21
 121895235.904 7  94983319.96344                  23195877.273
                  23195879.629                          43.900          29.400

 107273301.491 8  83434810.552 7                  20067688.367    20067688.930
                  20067693.063                          50.900          46.600

 125938965.724 7  98134293.769 7                  23965385.156
  23965390.621    23965391.027                          46.900          42.000

 124053449.296 7  96665042.41243                  23606579.492
                  23606584.309                          43.000          20.400

 106879894.942 8  83282994.187 8                  20338539.844
  20338543.785    20338543.840                          50.000          50.300

 109526057.454 7                                  20525137.219    20525135.199
                                                        43.000

 121973070.705 7  94867999.271 6                  22825602.977    22825602.129
                  22825607.320                          44.600          40.900

 130608093.48114 101584117.376 4                  24415809.289    24415808.207
                  24415815.629                          28.900          29.500

 128666190.172 6 100259423.833 6                  24484366.117
  24484373.281    24484373.570                          40.300          37.900

 123558228.322 6                                  23130365.805    23130364.840
                                                        39.800

 118554192.001 7  92379930.388 7                  22560107.969
  22560114.898    22560114.543                          46.300          45.200

 126385423.168 7  98482179.460 6                  24050345.977
  24050350.621    24050350.383                          42.900          37.100

 125083770.202 7  97287444.332 6                  23358514.734    23358514.238
                  23358519.430                          42.200          38.100

 109583016.646 7  85231322.046 7                  20492573.523    20492572.207
                  20492578.574                          44.500          46.700

 109796291.671 8  85555587.893 7                  20893523.922
  20893528.215    20893528.152                          49.100          47.600

 124968641.428 6  97378156.66144                  23780728.586
                  23780733.754                          41.100          24.300

 109566943.872 8  85218614.756 7                  20475158.336    20475156.785
                  20475161.156                          50.000          45.300

 19  6 12  0  0 10.0000000  0 16G02R05G15G13G29R06R11G26R12G25G12R04
                                R20G05G21R21
 121905336.570 7  94991190.61644                  23197799.492
                  23197801.613                          43.600          29.600

 107279122.572 8  83439338.065 7                  20068776.758    20068776.734
                  20068781.453                          51.000          46.700

 125921290.836 7  98120521.149 6                  23962022.266
  23962026.734    23962027.492                          47.400          41.000

 124039727.065 7  96654349.77643                  23603967.727
                  23603972.426                          42.700          19.300

 106874406.374 8  83278717.383 8                  20337495.133
  20337499.602    20337499.773                          49.600          49.800

 109509637.925 7                                  20522058.789    20522057.590
                                                        43.400

 121985243.542 7  94877467.044 6                  22827879.773    22827879.984
                  22827885.176                          44.800          40.400

 128655290.867 6 100250930.878 6                  24482292.844
  24482298.719    24482299.066                          41.400          38.000

 123558658.128 6                                  23130445.289    23130445.148
                                                        40.800

 118567778.422 7  92390517.205 7                  22562693.344
  22562700.566    22562700.680                          46.100          45.500

 126404211.636 7  98496819.801 6                  24053922.125
  24053925.246    24053925.301                          43.600          37.700

 125103412.651 7  97302721.762 6                  23362183.977    23362181.723
                  23362187.148                          42.300          38.400

 109588894.966 7  85235894.091 7                  20493673.484    20493671.816
                  20493678.535                          44.600          46.800

 109805582.297 8  85562827.343 7                  20895291.742
  20895295.625    20895295.738                          49.800          47.600

 124958478.767 6  97370237.72044                  23778795.266
                  23778799.496                          41.700          24.700

 109556856.215 8  85210768.797 7                  20473273.578    20473272.262
                  20473276.398                          49.800          45.300

 19  6 12  0  0 15.0000000  0 17G02R05G15G13G29R06R11R19G26R12G25G12
                                R04R20G05G21R21
 121915439.522 7  94999063.04544                  23199722.227
                  23199723.586                          43.900          29.400

 107284965.504 8  83443882.572 7                  20069870.117    20069869.977
                  20069874.461                          50.700          46.600

 125903617.075 7  98106749.376 6                  23958659.242
  23958663.594    23958663.941                          47.300          41.100

 124026011.081 6  96643662.00843                  23601357.039
                  23601362.676                          41.800          18.600

 106868929.325 8  83274449.550 8                  20336453.141
  20336457.082    20336457.430                          49.800          50.100

 109493233.112 7                                  20518984.711    20518983.395
                                                        43.400

 121997430.083 7  94886945.462 6                  22830161.383    22830160.535
                  22830165.375                          44.800          40.400

 130637986.20514 101607367.24514                  24421399.219    24421397.551
                  24421404.152                          28.900          28.300

 128644403.430 6 100242447.168 6                  24480220.953
  24480227.063    24480227.820                          39.000          38.600

 123559108.361 6                                  23130530.070    23130529.340
                                                        40.900

 118581374.516 7  92401111.564 7                  22565280.391
  22565286.910    22565287.141                          46.400          44.300

 126423000.920 7  98511460.797 6                  24057497.672
  24057502.199    24057501.609                          42.700          38.800

 125123063.386 6  97318005.664 6                  23365852.234    23365850.449
                  23365856.109                          41.800          38.000

 109594782.287 7  85240473.114 7                  20494773.664    20494772.699
                  20494779.184                          44.500          46.700

 109814885.464 8  85570076.564 7                  20897062.188
  20897065.777    20897065.832                          49.300          47.500

 124948318.482 6  97362320.61544                  23776861.773
                  23776866.355                          41.400          24.500

 109546773.947 8  85202927.044 7                  20471389.727    20471387.707
                  20471392.313                          49.600          44.900

 19  6 12  0  0 20.0000000  0 17G02R05G15G13G29R06R11R19G26R12G25G12
                                R04R20G05G21R21
 121925544.860 7  95006937.33244                  23201644.414
                  23201646.008                          43.300          28.600

 107290830.320 8  83448444.086 7                  20070967.563    20070967.656
                  20070971.789                          50.800          46.500

 125885944.476 7  98092978.547 6                  23955296.188
  23955300.656    23955300.887                          47.000          41.100

 124012301.474 7  96632979.17543                  23598748.469
                  23598753.520                          42.500          19.600

 106863463.957 8  83270190.825 8                  20335412.672
  20335416.320    20335416.551                          49.700          49.300

 109476843.440 7                                  20515913.016    20515911.934
                                                        43.300

 122009630.400 7  94896434.605 6                  22832442.938    22832443.383
                  22832449.395                          43.900          40.700

 130652938.175 4 101618996.556 5                  24424191.922    24424192.250
                  24424198.965                          28.000          30.100

 128633528.050 6 100233972.850 6                  24478150.750
  24478157.621    24478157.852                          39.400          39.000

 123559578.854 6                                  23130616.828    23130617.156
                                                        41.000

 118594980.358 7  92411713.523 7                  22567869.148
  22567876.430    22567876.367                          46.400          44.800

 126441791.180 7  98526102.529 6                  24061072.531
  24061077.527    24061077.816                          42.900          37.600

 125142722.407 6  97333296.024 6                  23369522.000    23369522.211
                  23369527.988                          41.700          37.900

 109600678.745 7  85245059.237 7                  20495876.844    20495876.113
                  20495882.480                          44.300          46.900

 109824201.213 8  85577335.589 7                  20898834.984
  20898838.691    20898838.863                          49.400          47.200

 124938160.696 6  97354405.47944                  23774928.695
                  23774932.926                          41.700          25.100

 109536697.244 8  85195089.612 7                  20469506.172    20469504.621
                  20469509.461                          50.000          45.300

 19  6 12  0  0 25.0000000  0 16G02R05G15G13G29R06R11G26R12G25G12R04
                                R20G05G21R21
 121935652.503 7  95014813.40944                  23203568.625
                  23203569.809                          43.600          29.900

 107296716.954 8  83453022.590 7                  20072069.031    20072069.008
                  20072073.023                          50.900          45.900

 125868273.055 7  98079208.620 6                  23951933.984
  23951937.691    23951937.980                          47.900          40.300

 123998598.147 7  96622301.28743                  23596141.867
                  23596145.453                          42.800          19.300

 106858010.164 8  83265941.112 8                  20334374.727
  20334379.137    20334379.426                          49.100          49.500

 109460468.610 7                                  20512845.414    20512843.512
                                                        43.300

 122021844.548 7  94905934.479 6                  22834728.977    22834728.953
                  22834734.848                          44.600          39.800

 128622664.566 6 100225507.802 6                  24476083.344
  24476089.629    24476090.152                          39.200          38.300

 123560069.828 6                                  23130710.227    23130708.559
                                                        40.500

 118608595.877 7  92422323.025 7                  22570459.797
  22570466.785    22570466.430                          45.600          44.400

 126460582.282 6  98540744.946 6                  24064648.117
  24064653.113    24064653.402                          41.800          37.700

 125162389.602 6  97348592.705 6                  23373195.320    23373195.531
                  23373200.371                          41.800          37.300

 109606584.344 7  85249652.485 7                  20496979.766    20496979.625
                  20496986.340                          44.300          46.700

 109833529.363 8  85584604.275 7                  20900609.984
  20900614.219    20900614.332                          48.800          47.100

 124928005.260 6  97346492.16944                  23772997.133
                  23773000.426                          41.600          25.500

 109526626.064 8  85187256.452 7                  20467623.664    20467622.230
                  20467626.953                          49.200          45.200

 19  6 12  0  0 30.0000000  0 17G02R05G15G13G29R06R11R19G26R12G25G12
                                R04R20G05G21R21
 121945762.476 7  95022691.32644                  23205492.484
                  23205494.137                          43.700          29.000

 107302625.260 8  83457617.936 7                  20073173.242    20073173.453
                  20073178.059                          50.300          47.100

 125850602.817 7  98065439.605 6                  23948571.602
  23948575.250    23948575.422                          47.800          41.300

 123984901.155 7  96611628.32043                  23593535.281
                  23593539.160                          43.200          19.600

 106852567.957 8  83261700.434 8                  20333339.648
  20333343.414    20333343.820                          49.900          49.500

 109444108.719 7                                  20509779.172    20509777.973
                                                        43.600

 122034072.325 7  94915444.989 6                  22837017.125    22837016.395
                  22837023.230                          44.000          40.700

 130682853.24114 101642263.76514                  24429787.117    24429785.918
                  24429791.344                          29.900          28.900

 128611813.079 6 100217052.087 6                  24474019.219
  24474025.680    24474025.441                          39.400          39.500

 123560581.291 6                                  23130804.320    23130804.180
                                                        40.200

 118622221.070 7  92432940.068 7                  22573052.047
  22573059.621    22573059.559                          45.700          44.300

 126479374.283 7  98555388.044 6                  24068224.266
  24068228.676    24068229.023                          43.000          36.700

 125182064.839 6  97363895.677 6                  23376869.828    23376869.688
                  23376874.645                          41.800          37.900

 109612498.943 7  85254252.710 7                  20498086.844    20498086.230
                  20498092.832                          44.200          46.900

 109842869.987 8  85591882.679 7                  20902387.227
  20902391.520    20902391.633                          49.100          47.300

 124917852.283 7  97338580.75244                  23771065.125
                  23771068.125                          42.200          26.500

 109516560.344 8  85179427.571 7                  20465743.203    20465741.535
                  20465746.141                          49.700          45.300

 19  6 12  0  0 35.0000000  0 17G02R05G15G13G29R06R11R19G26R12G25G12
                                R04R20G05G21R21
 121955874.728 7  95030570.99544                  23207415.984
                  23207418.223                          44.700          29.900

 107308555.305 8  83462230.189 7                  20074282.563    20074283.008
                  20074287.496                          50.900          46.700

 125832933.662 7  98051671.456 6                  23945208.211
  23945212.855    23945213.145                          47.200          41.400

 123971210.401 7  96600960.16843                  23590929.898
                  23590933.719                          43.900          19.600

 106847137.323 8  83257468.767 8                  20332305.883
  20332310.293    20332310.523                          49.700          49.500

 109427763.787 7                                  20506716.734    20506714.363
                                                        43.600

 122046313.802 7  94924966.119 6                  22839307.992    22839307.613
                  22839314.332                          44.500          40.400

 130697816.150 5 101653901.659 4                  24432583.594    24432582.863
                  24432588.289                          30.700          28.100

 128600973.463 6 100208605.649 6                  24471956.109
  24471962.629    24471963.270                          39.900          39.200

 123561112.997 6                                  23130904.813    23130904.199
                                                        40.900

 118635855.852 7  92443564.571 7                  22575648.063
  22575654.055    22575653.992                          46.300          44.200

 126498167.141 7  98570031.833 6                  24071800.758
  24071804.465    24071804.637                          43.100          36.100

 125201748.266 7  97379205.009 6                  23380546.234    23380545.855
                  23380550.578                          42.400          37.800

 109618422.556 7  85258859.977 7                  20499194.617    20499193.301
                  20499199.785                          44.300          46.500

 109852222.929 8  85599170.684 7                  20904166.523
  20904171.402    20904171.281                          49.500          47.500

 124907701.615 7  97330671.14544                  23769134.227
                  23769136.230                          42.400          26.400

 109506500.048 8  85171602.887 7                  20463862.531    20463861.215
                  20463866.055                          50.000          45.500

 19  6 12  0  0 40.0000000  0 17G02R05G15G13G29R06R11R19G26R12G25G12
                                R04R20G05G21R21
 121965989.314 7  95038452.48045                  23209341.258
                  23209343.203                          43.700          30.000

 107314507.128 8  83466859.388 7                  20075396.672    20075395.941
                  20075400.547                          50.500          47.400

 125815265.791 7  98037904.293 6                  23941845.828
  23941850.180    23941850.703                          47.100          40.200

 123957526.020 7  96590297.06643                  23588324.844
                  23588329.191                          42.500          20.100

 106841718.333 8  83253246.181 8                  20331274.367
  20331279.012    20331279.066                          49.400          50.300

 109411433.702 7                                  20503656.742    20503654.605
                                                        43.400

 122058568.975 7  94934497.905 6                  22841600.430    22841600.168
                  22841607.473                          44.000          40.400

 130712782.892 4 101665542.427 4                  24435380.375    24435379.059
                  24435385.660                          29.600          28.300

 128590145.886 6 100200168.593 6                  24469894.891
  24469901.820    24469902.285                          39.400          39.200

 123561665.074 6                                  23131007.156    23131007.602
                                                        40.900

 118649500.308 7  92454196.610 7                  22578244.125
  22578250.645    22578250.699                          45.900          44.500

 126516960.828 7  98584676.266 6                  24075376.750
  24075380.750    24075380.863                          43.000          37.400

 125221439.788 7  97394520.627 6                  23384223.172    23384222.676
                  23384227.633                          42.700          38.300

 109624355.319 7  85263474.340 7                  20500304.039    20500303.309
                  20500309.441                          44.700          46.800

 109861588.365 8  85606468.425 7                  20905949.242
  20905953.535    20905953.414                          49.500          47.300

 124897553.342 7  97322763.40844                  23767203.563
                  23767205.449                          42.500          27.200

 109496445.285 8  85163782.534 7                  20461983.820    20461983.090
                  20461988.164                          50.600          45.700

 19  6 12  0  0 45.0000000  0 17G02R05G15G13G29R06R11R19G26R12G25G12
                                R04R20G05G21R21
 121976106.258 7  95046335.82344                  23211265.570
                  23211268.395                          44.300          29.300

 107320480.786 8  83471505.579 7                  20076514.391    20076513.777
                  20076518.617                          51.000          47.300

 125797599.186 7  98024138.109 6                  23938483.820
  23938489.695    23938489.809                          46.600          41.300

 123943848.097 7  96579638.92343                  23585721.570
                  23585726.387                          42.200          20.400

 106836311.024 8  83249032.691 8                  20330245.250
  20330249.895    20330250.008                          49.100          50.200

 109395118.659 7                                  20500599.547    20500597.879
                                                        44.600

 122070837.767 7  94944040.317 6                  22843896.961    22843896.230
                  22843902.949                          43.400          39.400

 130727753.318 5 101677186.097 4                  24438181.219    24438179.199
                  24438184.508                          30.500          27.500

 128579330.325 6 100191740.894 6                  24467837.492
  24467844.480    24467844.828                          40.600          38.900

 123562237.614 6                                  23131116.148    23131115.770
                                                        41.100

 118663154.453 7  92464836.200 7                  22580842.680
  22580849.727    22580849.371                          46.100          44.700

 126535755.339 7  98599321.345 6                  24078953.250
  24078957.543    24078957.832                          43.300          36.700

 125241139.432 7  97409842.564 6                  23387903.227    23387901.559
                  23387906.633                          42.300          37.800

 109630297.325 7  85268095.899 7                  20501415.078    20501414.699
                  20501420.598                          44.100          47.000

 109870966.345 8  85613775.941 7                  20907733.555
  20907737.906    20907737.785                          48.700          47.000

 124887407.548 7  97314857.57644                  23765271.891
                  23765274.598                          42.300          25.800

 109486396.133 8  85155966.525 7                  20460106.539    20460104.637
                  20460109.945                          50.800          45.700

 19  6 12  0  0 50.0000000  0 17G02R05G15G13G29R06R11R19G26R12G25G12
                                R04R20G05G21R21
 121986225.470 7  95054220.91444                  23213191.938
                  23213194.059                          43.800          27.300

 107326476.081 8  83476168.580 7                  20077635.422    20077635.281
                  20077640.238                          50.600          46.600

 125779933.719 7  98010372.837 6                  23935120.977
  23935127.496    23935127.844                          45.800          40.800

 123930176.423 7  96568985.67043                  23583119.438
                  23583124.430                          42.400          20.100

 106830915.243 8  83244828.184 8                  20329218.313
  20329223.074    20329223.305                          48.800          49.400

 109378818.567 7                                  20497543.688    20497542.488
                                                        43.700

 122083120.221 7  94953593.317 6                  22846195.781    22846196.344
                  22846202.473                          44.100          40.600

 130742727.276 5 101688832.505 3                  24440983.719    24440979.586
                  24440984.309                          30.500          23.600

 128568526.659 6 100183322.445 6                  24465781.898
  24465788.184    24465788.414                          40.000          38.300

 123562830.496 6                                  23131227.766    23131226.801
                                                        40.900

 118676818.142 7  92475483.219 7                  22583442.602
  22583449.707    22583449.527                          44.700          44.700

 126554550.616 7  98613967.002 6                  24082530.016
  24082533.957    24082534.129                          43.600          37.200

 125260847.210 7  97425170.837 6                  23391583.906    23391582.707
                  23391587.664                          42.100          38.400

 109636248.242 7  85272724.388 7                  20502527.859    20502526.895
                  20502532.910                          44.800          46.400

 109880356.650 8  85621093.051 7                  20909520.859
  20909524.801    20909524.797                          49.300          47.000

 124877264.054 7  97306953.58044                  23763343.453
                  23763344.227                          43.600          26.500

 109476352.412 8  85148154.740 7                  20458228.492    20458227.527
                  20458233.188                          50.200          45.400

 19  6 12  0  0 55.0000000  0 17G02R05G15G13G29R06R11R19G26R12G25G12
                                R04R20G05G21R21
 121996347.010 7  95062107.83944                  23215118.000
                  23215119.652                          43.400          28.000

 107332493.155 8  83480848.537 7                  20078759.664    20078760.461
                  20078765.652                          50.500          46.800

 125762269.545 7  97996608.536 6                  23931759.555
  23931766.602    23931766.832                          45.300          40.600

 123916511.204 7  96558337.44143                  23580519.266
                  23580524.492                          43.000          19.900

 106825531.155 8  83240632.786 8                  20328194.250
  20328198.777    20328198.656                          49.000          49.500

 109362533.586 7                                  20494492.602    20494491.285
                                                        44.100

 122095416.192 7  94963156.836 6                  22848497.188    22848496.457
                  22848502.590                          44.300          40.900

 130757705.005 4 101700481.858 4                  24443781.977    24443778.313
                  24443783.504                          28.900          24.200

 128557735.059 6 100174913.415 6                  24463728.289
  24463734.809    24463735.332                          40.200          38.500

 123563443.708 6                                  23131341.219    23131342.484
                                                        41.100

 118690491.443 7  92486137.740 7                  22586043.625
  22586051.434    22586051.313                          44.500          44.100

 126573346.659 7  98628613.278 6                  24086106.023
  24086110.902    24086111.074                          43.000          37.300

 125280562.992 7  97440505.307 6                  23395264.555    23395263.941
                  23395269.250                          42.000          38.400

 109642208.257 7  85277359.963 7                  20503643.148    20503642.301
                  20503648.316                          44.700          46.800

 109889759.350 8  85628419.828 7                  20911310.156
  20911314.215    20911313.977                          48.800          46.600

 124867123.037 6  97299051.49544                  23761411.219
                  23761414.102                          41.300          25.500

 109466314.309 8  85140347.322 7                  20456352.539    20456351.457
                  20456356.766                          49.900          45.700

 19  6 12  0  1  0.0000000  0 16G02R05G15G13G29R06R11G26R12G25G12R04
                                R20G05G21R21
 122006470.974 7  95069996.64544                  23217043.305
                  23217045.602                          43.300          27.000

 107338532.032 8  83485545.441 7                  20079890.109    20079890.320
                  20079895.629                          50.500          46.600

 125744606.720 7  97982845.318 6                  23928398.555
  23928405.543    23928405.773                          45.100          40.400

 123902852.487 7  96547694.30843                  23577920.586
                  23577925.285                          42.800          20.400

 106820158.777 8  83236446.521 8                  20327172.188
  20327175.836    20327175.949                          49.700          49.100

 109346263.627 7                                  20491443.969    20491441.832
                                                        44.200

 122107725.947 7  94972731.108 6                  22850800.719    22850801.516
                  22850806.824                          44.700          40.800

 128546955.562 6 100166513.817 6                  24461676.148
  24461683.488    24461683.777                          38.700          37.900

 123564077.481 6                                  23131460.609    23131460.938
                                                        41.000

 118704174.435 7  92496799.811 7                  22588646.969
  22588655.480    22588655.477                          45.400          43.900

 126592143.533 7  98643260.189 6                  24089683.625
  24089687.625    24089687.621                          43.000          37.100

 125300286.903 7  97455846.140 6                  23398945.477    23398946.508
                  23398952.285                          42.000          38.700

 109648177.530 7  85282002.730 7                  20504760.055    20504758.270
                  20504764.398                          44.700          46.400

 109899174.585 8  85635756.372 7                  20913101.750
  20913106.043    20913105.922                          49.100          47.600

 124856984.435 6  97291151.29944                  23759481.359
                  23759485.180                          41.600          26.100

 109456281.777 8  85132544.258 7                  20454477.891    20454476.926
                  20454482.352                          50.300          45.400

 19  6 12  0  1  5.0000000  0 17G02R05G15G13G29R06R11R19G26R12G25G12
                                R04R20G05G21R21
 122016597.118 7  95077887.12944                  23218971.031
                  23218972.098                          43.200          28.000

 107344592.562 8  83490259.179 7                  20081023.586    20081023.680
                  20081028.988                          50.000          46.700

 125726945.039 7  97969082.999 6                  23925037.664
  23925043.480    23925044.414                          45.700          39.200

 123889200.101 7  96537056.10043                  23575322.906
                  23575327.547                          43.700          20.400

 106814797.960 8  83232269.257 8                  20326152.461
  20326155.934    20326156.105                          49.800          49.400

 109330008.721 7                                  20488397.078    20488395.410
                                                        43.800

 122120049.236 7  94982315.881 6                  22853107.156    22853106.426
                  22853112.676                          44.700          39.900

 130787671.72014 101723789.25014                  24449380.945    24449380.449
                  24449386.582                          28.300          26.800

 128536187.961 6 100158123.453 6                  24459626.164
  24459633.445    24459634.613                          37.400          38.300

 123564731.490 6                                  23131582.336    23131581.723
                                                        40.700

 118717866.865 7  92507469.236 7                  22591252.625
  22591260.785    22591260.781                          45.100          44.300

 126610941.029 7  98657907.577 6                  24093259.641
  24093265.867    24093265.277                          42.700          36.900

 125320018.844 6  97471193.192 6                  23402629.031    23402631.703
                  23402637.602                          41.400          38.600

 109654155.804 7  85286652.498 7                  20505877.547    20505877.051
                  20505883.301                          44.400          46.400

 109908602.068 8  85643102.459 7                  20914896.227
  20914899.523    20914899.695                          48.300          47.200

 124846848.202 6  97283252.96544                  23757554.031
                  23757556.387                          41.200          27.500

 109446254.721 8  85124745.438 7                  20452603.367    20452602.871
                  20452608.418                          49.900          46.100

 19  6 12  0  1 10.0000000  0 17G02R05G15G13G29R06R11R19G26R12G25G12
                                R04R20G05G21R21
 122026725.666 7  95085779.51144                  23220899.203
                  23220899.918                          43.600          28.900

 107350674.805 8  83494989.819 7                  20082161.359    20082161.805
                  20082167.348                          50.200          47.100

 125709284.769 7  97955321.729 6                  23921677.313
  23921683.480    23921683.711                          45.200          40.300

 123875554.243 7  96526422.95943                  23572726.703
                  23572730.934                          43.400          21.100

 106809448.919 8  83228101.167 8                  20325134.430
  20325138.078    20325138.309                          49.900          49.500

 109313768.792 7                                  20485353.578    20485352.262
                                                        44.000

 122132386.047 7  94991911.156 6                  22855416.297    22855415.684
                  22855420.641                          45.000          39.800

 130802660.57814 101735447.297 4                  24452184.750    24452182.262
                  24452188.625                          28.600          27.200

 128525432.426 6 100149742.544 6                  24457579.242
  24457586.641    24457587.574                          37.300          38.300

 123565405.940 6                                  23131710.109    23131708.324
                                                        40.400

 118731568.935 7  92518146.185 7                  22593859.617
  22593867.836    22593867.773                          45.700          44.600

 126629739.381 7  98672555.642 6                  24096835.992
  24096842.395    24096842.098                          42.500          37.400

 125339758.928 6  97486546.563 6                  23406317.930    23406318.375
                  23406323.918                          41.500          38.700

 109660143.184 7  85291309.360 7                  20506996.422    20506995.105
                  20507001.117                          44.600          46.300

 109918042.041 8  85650458.288 7                  20916693.297
  20916696.125    20916696.355                          49.300          47.300

 124836714.380 6  97275356.47944                  23755622.961
                  23755628.305                          40.500          25.800

 109436233.292 8  85116950.992 7                  20450730.953    20450730.105
                  20450735.770                          49.900          45.900

 19  6 12  0  1 15.0000000  0 16G02R05G15G13G29R06R11G26R12G25G12R04
                                R20G05G21R21
 122036856.523 7  95093673.68744                  23222826.938
                  23222828.180                          42.300          27.600

 107356778.761 8  83499737.333 7                  20083303.242    20083303.453
                  20083309.113                          49.800          46.400

 125691625.752 7  97941561.509 6                  23918317.414
  23918323.230    23918323.402                          46.100          39.900

 123861914.832 7  96515794.84143                  23570131.195
                  23570135.309                          44.200          21.100

 106804111.490 8  83223942.124 8                  20324118.805
  20324121.867    20324121.980                          50.400          49.300

 109297543.909 7                                  20482314.914    20482312.426
                                                        43.900

 122144736.431 7  95001517.004 6                  22857727.109    22857726.613
                  22857732.277                          44.500          40.400

 128514688.963 6 100141371.061 5                  24455536.133
  24455541.715    24455543.586                          38.300          35.800

 123566100.673 6                                  23131837.875    23131838.320
                                                        40.200

 118745280.570 7  92528830.575 7                  22596468.992
  22596477.680    22596477.441                          45.600          44.900

 126648538.420 7  98687204.223 6                  24100414.352
  24100420.051    24100419.754                          42.600          38.100

 125359506.935 6  97501906.100 6                  23410006.430    23410006.168
                  23410011.480                          41.500          38.700

 109666139.611 7  85295973.233 7                  20508118.000    20508116.684
                  20508122.578                          44.800          46.600

 109927494.415 8  85657823.774 7                  20918491.289
  20918495.172    20918495.344                          48.900          46.600

 124826582.947 6  97267461.88144                  23753695.789
                  23753700.664                          41.000          24.200

 109426217.386 8  85109160.854 7                  20448859.578    20448857.910
                  20448863.688                          49.600          45.700

 19  6 12  0  1 20.0000000  0 16G02R05G15G13G29R06R11G26R12G25G12R04
                                R20G05G21R21
 122046989.725 7  95101569.67344                  23224755.820
                  23224756.301                          44.000          29.400

 107362904.349 8  83504501.692 7                  20084449.352    20084449.680
                  20084455.105                          50.300          46.900

 125673968.082 7  97927802.280 6                  23914956.336
  23914963.910    23914963.672                          45.500          40.600

 123848281.909 7  96505171.78443                  23567536.773
                  23567541.121                          43.900          21.800

 106798785.724 8  83219792.183 8                  20323105.109
  20323108.934    20323108.988                          49.700          49.500

 109281334.354 7                                  20479276.594    20479274.223
                                                        44.200

 122157100.283 7  95011133.353 6                  22860042.273    22860040.840
                  22860045.680                          44.100          39.600

 128503957.517 6 100133008.865 6                  24453493.023
  24453499.250    24453501.648                          37.400          36.000

 123566815.821 6                                  23131972.219    23131972.781
                                                        39.800

 118759001.702 7  92539522.363 7                  22599080.227
  22599088.973    22599088.441                          45.000          44.900

 126667338.199 7  98701853.392 6                  24103992.078
  24103997.250    24103997.305                          42.800          37.700

 125379263.065 6  97517271.950 6                  23413697.383    23413695.832
                  23413700.789                          41.800          39.000

 109672145.213 7  85300644.245 7                  20509241.539    20509241.516
                  20509247.176                          44.600          47.000

 109936959.169 8  85665198.907 7                  20920291.711
  20920296.180    20920296.117                          48.600          46.800

 124816453.874 6  97259569.09643                  23751767.844
                  23751772.836                          40.100          23.400

 109416207.101 8  85101375.073 7                  20446989.836    20446987.816
                  20446993.359                          50.200          45.700

 19  6 12  0  1 25.0000000  0 16G02R05G15G13G29R06R11G26R12G25G12R04
                                R20G05G21R21
 122057125.186 7  95109467.44544                  23226684.820
                  23226685.887                          43.100          29.600

 107369051.598 8  83509282.875 7                  20085599.625    20085599.363
                  20085604.441                          50.200          46.200

 125656311.674 7  97914044.047 6                  23911596.781
  23911602.891    23911602.945                          45.600          39.600

 123834655.424 7  96494553.77143                  23564944.266
                  23564948.730                          44.700          21.700

 106793471.602 8  83215651.314 8                  20322094.453
  20322097.926    20322098.039                          50.200          49.700

 109265139.740 7                                  20476241.539    20476240.223
                                                        44.500

 122169477.648 7  95020760.189 6                  22862357.203    22862356.941
                  22862362.020                          44.000          39.700

 128493238.121 6 100124656.060 6                  24451452.328
  24451459.668    24451461.480                          36.900          37.300

 123567551.267 6                                  23132108.516    23132109.781
                                                        39.500

 118772732.291 7  92550221.518 7                  22601692.891
  22601702.516    22601701.984                          45.500          45.300

 126686138.629 7  98716503.078 6                  24107568.945
  24107575.055    24107574.816                          42.500          38.200

 125399027.033 7  97532643.920 6                  23417387.930    23417386.379
                  23417391.570                          42.000          38.700

 109678159.683 7  85305322.183 7                  20510367.234    20510365.801
                  20510371.695                          44.600          46.000

 109946436.191 8  85672583.603 7                  20922094.891
  20922100.238    20922099.941                          48.700          47.300

 124806327.127 6  97251678.15043                  23749840.414
                  23749845.875                          40.000          23.200

 109406202.316 8  85093593.576 7                  20445120.055    20445118.387
                  20445123.695                          50.300          45.400

 19  6 12  0  1 30.0000000  0 16G02R05G15G13G29R06R11G26R12G25G12R04
                                R20G05G21R21
 122067263.098 7  95117367.10445                  23228614.617
                  23228614.980                          43.900          30.400

 107375220.706 8  83514081.066 7                  20086753.867    20086753.727
                  20086759.035                          50.900          46.300

 125638656.778 7  97900287.006 6                  23908238.078
  23908243.719    23908243.715                          46.300          39.900

 123821035.575 7  96483940.88043                  23562352.844
                  23562356.898                          45.000          22.300

 106788169.309 8  83211519.659 8                  20321084.953
  20321088.836    20321088.598                          50.100          49.800

 109248960.325 7                                  20473209.477    20473207.340
                                                        44.300

 122181868.624 7  95030397.577 6                  22864676.758    22864674.973
                  22864680.516                          44.100          40.300

 128482530.829 5 100116312.743 6                  24449415.016
  24449422.238    24449423.875                          35.400          36.900

 123568307.256 6                                  23132251.523    23132251.500
                                                        39.700

 118786472.540 7  92560928.195 7                  22604307.102
  22604317.020    22604316.957                          44.800          45.300

 126704939.909 7  98731153.397 6                  24111147.242
  24111153.234    24111153.055                          42.800          39.200

 125418798.934 7  97548022.054 6                  23421079.461    23421078.496
                  23421083.570                          42.300          38.400

 109684183.593 7  85310007.430 7                  20511493.000    20511492.387
                  20511498.168                          45.000          46.500

 109955925.656 8  85679977.982 7                  20923900.875
  20923905.402    20923905.457                          49.300          47.200

 124796202.914 6  97243789.15944                  23747915.539
                  23747918.480                          40.600          24.600

 109396203.283 8  85085816.556 7                  20443251.102    20443249.902
                  20443255.211                          50.000          45.700

 19  6 12  0  1 35.0000000  0 16G02R05G15G13G29R06R11G26R12G25G12R04
                                R20G05G21R21
 122077403.342 7  95125268.59245                  23230543.836
                  23230544.258                          45.100          30.500

 107381411.389 8  83518896.056 7                  20087912.328    20087911.598
                  20087916.672                          50.800          46.600

 125621003.168 7  97886530.944 6                  23904878.469
  23904883.641    23904883.754                          46.400          38.800

 123807422.204 7  96473333.05143                  23559761.977
                  23559766.207                          44.600          21.800

 106782878.698 8  83207397.112 8                  20320078.672
  20320081.324    20320081.789                          51.000          49.600

 109232795.988 7                                  20470180.008    20470178.340
                                                        44.500

 122194273.041 7  95040045.460 6                  22866996.805    22866995.957
                  22867001.973                          44.100          40.600

 128471835.662 6 100107978.868 6                  24447380.133
  24447386.418    24447388.055                          36.200          36.800

 123569083.535 6                                  23132396.781    23132396.051
                                                        39.700

 118800222.246 7  92571642.241 7                  22606924.391
  22606933.254    22606933.484                          44.900          45.200

 126723741.807 7  98745804.229 6                  24114725.195
  24114730.660    24114730.891                          43.100          38.300

 125438578.729 6  97563406.334 6                  23424773.617    23424773.238
                  23424777.844                          41.800          38.700

 109690216.560 7  85314699.754 7                  20512620.617    20512619.301
                  20512625.551                          44.600          46.700

 109965427.449 8  85687381.977 7                  20925708.711
  20925713.063    20925713.234                          49.500          47.500

 124786080.986 6  97235901.95543                  23745989.367
                  23745992.953                          40.700          22.500

 109386209.775 8  85078043.840 7                  20441383.992    20441381.973
                  20441387.164                          50.300          45.700

 19  6 12  0  1 40.0000000  0 16G02R05G15G13G29R06R11G26R12G25G12R04
                                R20G05G21R21
 122087545.821 7  95133171.81444                  23232473.555
                  23232473.977                          43.900          29.500

 107387623.739 8  83523727.884 7                  20089073.852    20089073.590
                  20089078.668                          51.100          47.100

 125603350.872 7  97872775.903 6                  23901518.922
  23901525.207    23901524.969                          46.400          39.200

 123793815.340 7  96462730.30143                  23557172.758
                  23557177.398                          45.400          22.200

 106777599.766 8  83203283.658 8                  20319074.500
  20319077.035    20319077.441                          51.200          49.200

 109216646.986 7                                  20467154.852    20467152.246
                                                        44.700

 122206690.886 7  95049703.763 6                  22869319.234    22869319.914
                  22869325.926                          43.400          41.300

 128461152.561 6 100099654.371 6                  24445348.211
  24445353.734    24445355.547                          37.000          37.500

 123569880.142 6                                  23132545.063    23132545.273
                                                        38.700

 118813981.416 7  92582363.655 7                  22609543.203
  22609551.070    22609551.652                          45.200          45.000

 126742544.451 7  98760455.644 6                  24118303.281
  24118309.098    24118309.328                          42.800          39.200

 125458366.524 7  97578796.814 6                  23428468.617    23428468.355
                  23428472.609                          42.800          38.200

 109696258.603 7  85319399.109 7                  20513749.813    20513749.551
                  20513756.152                          44.600          46.200

 109974941.488 8  85694795.518 7                  20927519.438
  20927524.551    20927524.781                          48.800          47.300

 124775961.433 6  97228016.59143                  23744063.680
                  23744066.797                          40.500          23.000

 109376221.909 8  85070275.489 7                  20439517.211    20439515.660
                  20439520.383                          50.500          45.800

 19  6 12  0  1 45.0000000  0 16G02R05G15G13G29R06R11G26R12G25G12R04
                                R20G05G21R21
 122097690.696 7  95141076.91344                  23234403.930
                  23234404.586                          43.600          29.600

 107393857.753 8  83528576.561 7                  20090239.500    20090240.063
                  20090245.254                          50.500          46.700

 125585700.019 7  97859022.012 6                  23898160.367
  23898165.891    23898166.355                          46.000          39.200

 123780215.056 7  96452132.68943                  23554584.750
                  23554589.332                          45.200          22.500

 106772332.659 8  83199179.422 8                  20318072.141
  20318075.145    20318075.316                          50.400          49.300

 109200513.030 7                                  20464130.695    20464128.676
                                                        44.300

 122219122.202 7  95059372.541 6                  22871646.406    22871646.266
                  22871652.746                          43.500          41.200

 128450481.543 6 100091339.294 6                  24443318.070
  24443324.531    24443325.758                          38.000          38.800

 123570697.129 6                                  23132695.984    23132697.133
                                                        38.300

 118827750.083 7  92593092.481 7                  22612164.398
  22612170.684    22612171.383                          45.800          44.400

 126761347.810 7  98775107.596 6                  24121881.273
  24121887.266    24121887.496                          42.400          40.000

 125478162.125 7  97594193.422 6                  23432165.781    23432164.934
                  23432169.422                          43.200          38.100

 109702309.859 7  85324105.635 7                  20514882.039    20514881.309
                  20514887.676                          44.900          46.200

 109984467.918 8  85702218.709 7                  20929331.828
  20929337.059    20929336.938                          48.800          47.500

 124765844.354 6  97220133.15844                  23742137.930
                  23742141.105                          41.900          24.300

 109366239.717 8  85062511.567 7                  20437651.742    20437650.543
                  20437654.680                          50.300          46.300

 19  6 12  0  1 50.0000000  0 16G02R05G15G13G29R06R11G26R12G25G12R04
                                R20G05G21R21
 122107837.869 7  95148983.79944                  23236335.500
                  23236335.980                          43.300          29.000

 107400113.401 8  83533442.066 7                  20091410.516    20091410.492
                  20091415.801                          50.000          46.500

 125568050.549 7  97845269.174 6                  23894802.297
  23894807.469    23894807.406                          45.200          38.800

 123766621.287 7  96441540.14543                  23551998.164
                  23552002.805                          45.200          22.900

 106767077.215 8  83195084.271 8                  20317071.945
  20317075.008    20317075.238                          50.700          49.500

 109184394.287 7                                  20461109.898    20461107.762
                                                        43.900

 122231566.920 7  95069051.744 6                  22873974.703    22873974.441
                  22873981.746                          43.100          41.100

 128439822.650 6 100083033.692 6                  24441289.945
  24441295.703    24441296.871                          37.900          38.800

 123571534.395 6                                  23132855.469    23132854.504
                                                        39.000

 118841528.177 7  92603828.657 7                  22614785.805
  22614792.852    22614793.492                          46.600          44.400

 126780151.725 7  98789759.986 6                  24125459.805
  24125466.148    24125466.027                          42.300          39.800

 125497965.720 7  97609596.180 6                  23435863.008    23435862.984
                  23435867.469                          42.900          38.200

 109708370.286 7  85328819.298 7                  20516015.305    20516014.223
                  20516020.121                          44.500          46.000

 109994006.614 8  85709651.456 7                  20931147.055
  20931152.227    20931152.281                          48.800          47.300

 124755729.655 6  97212251.59543                  23740214.195
                  23740216.961                          41.100          23.000

 109356263.134 8  85054751.996 7                  20435788.203    20435786.652
                  20435790.789                          50.200          45.500

 19  6 12  0  1 55.0000000  0 16G02R05G15G13G29R06R11G26R12G25G12R04
                                R20G05G21R21
 122117987.430 7  95156892.54844                  23238266.031
                  23238266.863                          43.200          29.300

 107406390.660 8  83538324.375 7                  20092584.492    20092584.352
                  20092589.426                          50.000          46.700

 125550402.585 7  97831517.529 6                  23891442.734
  23891450.191    23891449.484                          45.100          39.600

 123753034.179 7  96430952.81343                  23549413.211
                  23549417.559                          45.600          22.300

 106761833.592 8  83190998.339 8                  20316074.047
  20316076.758    20316077.340                          50.800          49.000

 109168290.813 7                                  20458090.789    20458089.824
                                                        44.700

 122244025.130 7  95078741.443 6                  22876305.633    22876306.547
                  22876313.145                          43.200          41.000

 128429175.916 6 100074737.581 6                  24439263.500
  24439268.965    24439270.777                          37.700          37.300

 123572392.013 6                                  23133014.539    23133014.750
                                                        39.500

 118855315.785 7  92614572.243 7                  22617409.031
  22617416.137    22617416.777                          45.900          44.700

 126798956.328 7  98804412.909 6                  24129038.625
  24129044.207    24129044.379                          42.800          39.900

 125517777.081 7  97625005.015 6                  23439565.172    23439563.270
                  23439567.641                          43.400          37.800

 109714439.798 7  85333540.025 7                  20517151.781    20517150.230
                  20517155.773                          44.900          46.400

 110003557.638 8  85717093.816 7                  20932964.438
  20932969.375    20932969.430                          48.900          47.300

 124745617.473 7  97204371.95244                  23738289.953
                  23738292.426                          42.000          24.000

 109346292.233 8  85046996.858 7                  20433924.023    20433923.293
                  20433927.313                          50.000          45.600

 19  6 12  0  2  0.0000000  0 16G02R05G15G13G29R06R11G26R12G25G12R04
                                R20G05G21R21
 122128139.232 7  95164803.04144                  23240197.914
                  23240199.215                          42.900          29.300

 107412689.581 8  83543223.553 7                  20093762.836    20093762.930
                  20093768.473                          50.000          46.900

 125532756.001 7  97817766.950 6                  23888084.867
  23888090.625    23888090.914                          45.200          37.900

 123739453.664 7  96420370.56043                  23546829.242
                  23546832.652                          45.400          22.000

 106756601.717 8  83186921.554 8                  20315078.523
  20315081.410    20315081.699                          50.400          49.600

 109152202.417 7                                  20455077.156    20455074.785
                                                        44.200

 122256496.605 7  95088441.474 6                  22878640.867    22878640.844
                  22878646.035                          44.000          40.500

 128418541.323 6 100066450.882 6                  24437239.469
  24437245.402    24437247.508                          38.600          37.000

 123573269.930 6                                  23133180.852    23133179.652
                                                        40.200

 118869112.783 7  92625323.146 7                  22620034.414
  22620042.926    22620043.039                          45.100          44.500

 126817761.578 7  98819066.328 6                  24132616.500
  24132623.137    24132622.664                          42.200          40.000

 125537596.385 7  97640420.029 6                  23443264.297    23443264.391
                  23443268.641                          43.500          38.500

 109720518.472 7  85338267.908 7                  20518287.859    20518287.598
                  20518292.793                          44.500          46.600

 110013120.886 8  85724545.701 7                  20934784.914
  20934788.973    20934788.969                          48.800          46.800

 124735507.660 6  97196494.18843                  23736365.727
                  23736368.668                          41.500          23.200

 109336326.967 8  85039246.104 7                  20432062.766    20432061.098
                  20432064.883                          50.000          45.900

 19  6 12  0  2  5.0000000  0 16G02R05G15G13G29R06R11G26R12G25G12R04
                                R20G05G21R21
 122138293.381 7  95172715.36244                  23242129.805
                  23242130.930                          42.800          28.300

 107419010.043 8  83548139.460 7                  20094944.969    20094944.828
                  20094950.723                          50.100          47.300

 125515110.849 7  97804017.505 6                  23884728.500
  23884733.379    23884733.609                          45.100          38.200

 123725879.692 7  96409793.46343                  23544245.719
                  23544248.953                          45.000          22.800

 106751381.565 8  83182853.910 8                  20314084.766
  20314088.004    20314088.117                          50.200          49.800

 109136129.309 7                                  20452065.055    20452062.566
                                                        43.900

 122268981.359 7  95098151.854 6                  22880976.852    22880977.414
                  22880982.605                          44.100          40.400

 128407918.826 6 100058173.590 6                  24435219.633
  24435223.926    24435225.797                          39.200          37.000

 123574168.101 6                                  23133349.188    23133348.457
                                                        39.900

 118882919.142 7  92636081.336 7                  22622661.273
  22622669.258    22622669.547                          46.200          44.800

 126836567.408 7  98833720.199 6                  24136194.727
  24136201.773    24136201.359                          42.500          40.400

 125557423.419 7  97655841.048 6                  23446967.117    23446966.977
                  23446971.578                          43.000          38.300

 109726606.220 7  85343002.816 7                  20519426.375    20519425.879
                  20519431.309                          44.900          46.400

 110022696.378 8  85732007.132 7                  20936607.383
  20936611.852    20936611.789                          48.100          47.400

 124725400.223 6  97188618.24644                  23734441.320
                  23734445.727                          41.800          24.000

 109326367.320 8  85031499.716 7                  20430201.969    20430200.184
                  20430203.969                          50.400          45.300

 19  6 12  0  2 10.0000000  0 16G02R05G15G13G29R06R11G26R12G25G12R04
                                R20G05G21R21
 122148449.872 7  95180629.51344                  23244062.367
                  23244063.844                          42.800          29.600

 107425352.126 8  83553072.187 7                  20096131.398    20096131.492
                  20096137.152                          50.400          47.000

 125497467.167 7  97790269.171 6                  23881369.961
  23881375.543    23881375.539                          45.000          39.200

 123712312.396 7  96399221.54743                  23541662.547
                  23541667.656                          44.800          22.300

 106746173.221 8  83178795.467 8                  20313093.938
  20313097.000    20313097.230                          50.300          49.900

 109120071.503 7                                  20449055.969    20449053.363
                                                        44.100

 122281479.527 7  95107872.644 6                  22883315.023    22883315.352
                  22883320.895                          43.900          39.900

 128397308.442 6 100049905.762 6                  24433199.664
  24433205.480    24433206.355                          38.500          37.700

 123575086.611 6                                  23133521.367    23133521.930
                                                        40.200

 118896734.968 7  92646846.905 7                  22625291.094
  22625298.609    22625298.898                          45.700          44.300

 126855373.813 7  98848374.516 6                  24139773.906
  24139781.012    24139780.363                          43.200          40.400

 125577258.308 7  97671268.159 6                  23450670.117    23450670.680
                  23450675.754                          42.600          37.600

 109732703.176 7  85347744.903 7                  20520566.063    20520565.098
                  20520571.348                          44.400          47.300

 110032284.165 8  85739478.136 7                  20938431.453
  20938436.449    20938436.445                          48.100          47.700

 124715295.136 6  97180744.17644                  23732518.781
                  23732522.191                          41.500          24.500

 109316413.342 8  85023757.728 7                  20428341.328    20428340.363
                  20428344.383                          50.400          45.800

 19  6 12  0  2 15.0000000  0 16G02R05G15G13G29R06R11G26R12G25G12R04
                                R20G05G21R21
 122158608.683 7  95188545.46044                  23245995.672
                  23245997.852                          42.600          29.300

 107431715.819 8  83558021.724 7                  20097321.938    20097322.148
                  20097327.105                          50.200          47.300

 125479824.954 7  97776522.023 6                  23878013.102
  23878018.332    23878018.563                          45.100          37.800

 123698751.701 7  96388654.78444                  23539082.203
                  23539086.844                          45.100          24.200

 106740976.682 8  83174746.218 8                  20312104.625
  20312108.332    20312108.504                          50.900          49.600

 109104029.023 7                                  20446049.398    20446047.379
                                                        44.100

 122293991.048 7  95117603.816 6                  22885658.039    22885657.660
                  22885663.090                          43.900          40.500

 128386710.223 6 100041647.398 6                  24431182.469
  24431188.227    24431189.512                          39.200          37.300

 123576025.518 6                                  23133697.055    23133697.383
                                                        40.200

 118910560.132 7  92657619.770 7                  22627921.219
  22627929.730    22627930.020                          45.900          45.400

 126874180.812 7  98863029.306 6                  24143353.328
  24143358.676    24143358.965                          43.700          39.400

 125597100.926 7  97686701.308 6                  23454375.883    23454375.504
                  23454379.875                          42.400          37.500

 109738809.340 7  85352494.132 7                  20521707.211    20521706.949
                  20521713.199                          43.900          46.500

 110041884.239 8  85746958.706 7                  20940257.836
  20940262.539    20940262.535                          48.700          47.600

 124705192.494 6  97172871.99744                  23730595.391
                  23730600.090                          40.100          24.900

 109306465.046 8  85016020.170 7                  20426481.586    20426480.504
                  20426484.641                          50.300          45.600

 19  6 12  0  2 20.0000000  0 16G02R05G15G13G29R06R11G26R12G25G12R04
                                R20G05G21R21
 122168769.896 7  95196463.28044                  23247929.281
                  23247931.051                          42.500          28.300

 107438101.061 8  83562988.032 7                  20098517.055    20098516.324
                  20098521.398                          50.800          46.700

 125462184.298 7  97762776.031 6                  23874656.258
  23874661.195    23874661.953                          44.800          38.600

 123685197.715 7  96378093.23643                  23536503.063
                  23536507.117                          44.300          23.800

 106735791.940 8  83170706.161 8                  20311118.555
  20311121.500    20311121.730                          50.300          49.900

 109088001.948 7                                  20443045.563    20443043.543
                                                        43.700

 122306515.943 7  95127345.402 6                  22888002.211    22888002.539
                  22888007.496                          44.400          40.400

 128376124.250 6 100033398.592 6                  24429167.820
  24429174.750    24429175.391                          39.400          37.900

 123576984.687 6                                  23133876.789    23133876.176
                                                        40.000

 118924394.706 7  92668399.951 7                  22630553.805
  22630562.141    22630562.195                          45.700          44.900

 126892988.413 7  98877684.580 6                  24146932.500
  24146937.906    24146938.137                          44.400          39.600

 125616951.325 7  97702140.506 6                  23458082.766    23458082.387
                  23458086.641                          42.500          37.600

 109744924.622 7  85357250.467 7                  20522852.016    20522850.699
                  20522857.301                          44.500          46.900

 110051496.595 8  85754448.847 7                  20942087.234
  20942091.938    20942091.992                          48.800          47.600

 124695092.186 6  97165001.63843                  23728673.445
                  23728678.438                          40.700          22.500

 109296522.473 8  85008287.058 7                  20424623.734    20424621.949
                  20424626.438                          50.200          45.600

 19  6 12  0  2 25.0000000  0 16G02R05G15G13G29R06R11G26R12G25G12R04
                                R20G05G21R21
 122178933.396 7  95204382.88844                  23249862.977
                  23249865.156                          42.700          27.900

 107444507.862 8  83567971.101 7                  20099715.414    20099715.508
                  20099720.230                          50.500          46.800

 125444545.108 7  97749031.278 6                  23871300.352
  23871304.762    23871305.109                          45.200          38.300

 123671650.380 7  96367536.90143                  23533924.867
                  23533930.211                          44.600          22.600

 106730618.947 8  83166675.257 8                  20310134.023
  20310137.086    20310137.258                          51.400          50.000

 109071990.079 7                                  20440044.086    20440043.121
                                                        43.800

 122319053.981 7  95137097.203 6                  22890348.305    22890347.457
                  22890353.355                          44.600          40.700

 128365550.375 6 100025159.217 6                  24427156.227
  24427163.566    24427163.504                          38.300          38.800

 123577964.153 6                                  23134058.969    23134059.063
                                                        39.800

 118938238.632 7  92679187.414 7                  22633187.883
  22633196.336    22633196.684                          44.700          44.700

 126911796.481 7  98892340.215 6                  24150510.859
  24150516.090    24150516.730                          44.100          39.200

 125636809.583 7  97717585.814 6                  23461790.883    23461790.977
                  23461794.992                          42.700          36.900

 109751049.015 7  85362013.870 7                  20523996.633    20523995.902
                  20524002.387                          44.500          47.000

 110061121.111 8  85761948.470 7                  20943918.414
  20943924.113    20943924.109                          49.000          47.500

 124684994.261 7  97157133.12944                  23726753.008
                  23726756.828                          42.500          25.200

 109286585.567 8  85000558.361 7                  20422765.891    20422765.395
                  20422769.766                          50.200          45.500

 19  6 12  0  2 30.0000000  0 16G02R05G15G13G29R06R11G26R12G25G12R04
                                R20G05G21R21
 122189099.205 7  95212304.28844                  23251797.055
                  23251799.527                          43.200          29.700

 107450936.172 8  83572970.900 7                  20100917.750    20100918.313
                  20100923.035                          51.100          46.900

 125426907.458 7  97735287.599 6                  23867943.352
  23867948.465    23867948.695                          44.700          38.100

 123658109.744 7  96356985.75043                  23531348.953
                  23531352.891                          44.700          22.500

 106725457.759 8  83162653.549 8                  20309151.500
  20309155.031    20309154.910                          51.700          50.100

 109055993.580 7                                  20437047.547    20437045.293
                                                        43.800

 122331605.326 7  95146859.343 6                  22892697.836    22892697.930
                  22892702.414                          45.200          41.100

 128354988.684 6 100016929.333 6                  24425145.930
  24425154.383    24425153.969                          38.600          40.600

 123578963.922 6                                  23134245.648    23134246.094
                                                        39.900

 118952091.887 7  92689982.144 7                  22635824.586
  22635832.863    22635832.977                          45.400          44.500

 126930605.146 7  98906996.311 6                  24154090.727
  24154095.723    24154096.012                          44.700          39.400

 125656675.613 7  97733037.158 6                  23465501.039    23465500.777
                  23465505.031                          42.500          37.800

 109757182.595 7  85366784.422 7                  20525144.773    20525143.223
                  20525149.469                          44.600          46.600

 110070757.855 8  85769457.617 7                  20945752.344
  20945757.047    20945757.395                          49.300          47.200

 124674898.731 6  97149266.49144                  23724830.992
                  23724835.750                          41.800          25.300

 109276654.377 8  84992834.095 7                  20420910.531    20420909.215
                  20420913.938                          49.600          45.900

 19  6 12  0  2 35.0000000  0 16G02R05G15G13G29R06R11G26R12G25G12R04
                                R20G05G21R21
 122199267.302 7  95220227.48744                  23253732.688
                  23253734.105                          43.400          29.100

 107457386.030 8  83577987.452 7                  20102124.742    20102124.719
                  20102129.086                          50.900          46.400

 125409271.324 7  97721545.187 6                  23864586.813
  23864591.926    23864592.918                          43.900          37.000

 123644575.787 7  96346439.83144                  23528773.195
                  23528777.602                          44.600          24.700

 106720308.381 8  83158641.040 8                  20308171.320
  20308175.672    20308175.551                          50.700          49.800

 109040012.340 7                                  20434052.133    20434051.637
                                                        43.900

 122344169.947 7  95156631.813 6                  22895049.078    22895049.172
                  22895054.480                          45.500          41.400

 128344439.198 6 100008708.970 6                  24423138.109
  24423146.035    24423146.500                          38.800          40.300

 123579983.924 6                                  23134435.906    23134436.117
                                                        39.400

 118965954.482 7  92700784.152 7                  22638462.352
  22638471.156    22638470.918                          45.200          44.500

 126949414.294 7  98921652.777 6                  24157670.047
  24157675.102    24157675.449                          44.700          39.900

 125676549.175 7  97748494.393 6                  23469212.273    23469212.250
                  23469216.383                          42.000          37.800

 109763325.346 7  85371562.116 7                  20526292.766    20526291.566
                  20526297.934                          45.100          47.400

 110080406.775 8  85776976.262 7                  20947588.492
  20947593.078    20947593.660                          49.200          46.800

 124664805.589 7  97141401.72344                  23722911.219
                  23722915.566                          42.500          24.700

 109266728.834 8  84985114.237 7                  20419055.672    20419054.941
                  20419059.664                          50.100          46.500

 19  6 12  0  2 40.0000000  0 16G02R05G15G13G29R06R11G26R12G25G12R04
                                R20G05G21R21
 122209437.750 7  95228152.51244                  23255668.391
                  23255669.047                          43.800          28.300

 107463857.428 8  83583020.749 7                  20103335.648    20103335.859
                  20103340.227                          51.400          46.900

 125391636.701 7  97707803.936 6                  23861231.391
  23861237.266    23861236.676                          44.300          37.900

 123631048.585 7  96335899.14044                  23526198.594
                  23526203.234                          44.600          24.200

 106715170.804 8  83154637.739 8                  20307193.742
  20307197.742    20307197.855                          51.500          50.200

 109024046.662 7                                  20431059.852    20431058.301
                                                        43.600

 122356747.701 7  95166414.508 6                  22897403.422    22897401.402
                  22897407.414                          45.100          40.900

 128333901.859 6 100000498.082 6                  24421133.313
  24421140.184    24421140.824                          39.100          39.400

 123581024.332 6                                  23134632.523    23134631.090
                                                        39.400

 118979826.372 7  92711593.416 7                  22641102.398
  22641110.148    22641110.379                          45.600          45.100

 126968223.975 7  98936309.661 6                  24161249.758
  24161255.047    24161255.160                          45.100          39.900

 125696430.551 7  97763957.650 6                  23472926.742    23472924.957
                  23472929.094                          42.200          38.100

 109769477.224 7  85376346.914 7                  20527442.570    20527442.430
                  20527448.559                          44.600          47.600

 110090067.920 8  85784504.426 7                  20949426.359
  20949431.590    20949432.289                          49.000          47.200

 124654714.812 7  97133538.79944                  23720990.641
                  23720995.691                          42.100          26.700

 109256809.074 8  84977398.858 7                  20417202.000    20417200.918
                  20417205.641                          49.800          46.100

 19  6 12  0  2 45.0000000  0 16G02R05G15G13G29R06R11G26R12G25G12R04
                                R20G05G21R21
 122219610.418 7  95236079.25344                  23257603.508
                  23257604.809                          42.600          27.700

 107470350.272 8  83588070.757 7                  20104550.813    20104550.906
                  20104555.273                          50.800          47.000

 125374003.614 7  97694063.871 6                  23857874.602
  23857881.180    23857881.410                          42.800          36.600

 123617528.021 7  96325363.62244                  23523625.117
                  23523630.813                          44.100          24.200

 106710044.977 8  83150643.586 8                  20306218.219
  20306221.926    20306222.156                          50.800          50.100

 109008096.164 7                                  20428072.102    20428069.613
                                                        43.400

 122369338.679 7  95176207.485 6                  22899758.164    22899757.902
                  22899764.152                          44.100          41.500

 128323376.688 6  99992296.617 6                  24419130.805
  24419137.969    24419138.844                          40.400          39.200

 123582084.901 6                                  23134829.828    23134829.449
                                                        39.500

 118993707.488 7  92722409.865 7                  22643743.727
  22643752.180    22643752.410                          46.000          44.500

 126987034.052 7  98950966.856 6                  24164829.016
  24164834.539    24164834.359                          45.200          40.200

 125716319.512 6  97779426.825 6                  23476640.313    23476640.051
                  23476643.484                          41.800          38.200

 109775638.159 7  85381138.775 7                  20528595.648    20528594.332
                  20528600.699                          44.700          46.800

 110099741.166 8  85792042.014 7                  20951267.359
  20951272.531    20951272.645                          48.000          46.700

 124644626.368 7  97125677.68944                  23719070.641
                  23719076.277                          42.300          24.700

 109246894.891 8  84969687.833 7                  20415349.664    20415348.699
                  20415353.188                          50.200          45.500

 19  6 12  0  2 50.0000000  0 16G02R05G15G13G29R06R11G26R12G25G12R04
                                R20G05G21R21
 122229785.457 7  95244007.87044                  23259541.461
                  23259541.703                          43.200          27.900

 107476864.652 8  83593137.490 7                  20105768.742    20105769.070
                  20105773.320                          51.300          46.900

 125356372.120 6  97680325.064 6                  23854518.117
  23854526.863    23854526.801                          41.500          37.700

 123604014.213 7  96314833.41944                  23521053.945
                  23521059.055                          44.100          24.800

 106704931.007 8  83146658.672 8                  20305244.992
  20305249.109    20305249.105                          50.700          49.900

 108992161.035 7                                  20425084.922    20425083.488
                                                        43.800

 122381942.939 7  95186010.777 6                  22902116.234    22902116.445
                  22902122.105                          43.700          41.000

 128312863.736 6  99984104.716 6                  24417130.570
  24417138.027    24417138.375                          39.200          40.200

 123583165.781 6                                  23135032.039    23135031.543
                                                        39.200

 119007597.908 7  92733233.573 7                  22646386.805
  22646394.789    22646394.609                          46.100          45.000

 127005844.668 7  98965624.459 6                  24168408.328
  24168414.320    24168413.848                          44.700          39.900

 125736216.025 6  97794901.908 6                  23480355.070    23480354.457
                  23480358.477                          41.900          38.600

 109781808.351 7  85385937.799 7                  20529749.203    20529748.004
                  20529754.254                          44.700          46.800

 110109426.581 8  85799589.088 7                  20953110.977
  20953115.445    20953115.852                          48.800          46.600

 124634540.333 7  97117818.43644                  23717150.789
                  23717156.777                          42.000          25.900

 109236986.516 8  84961981.311 7                  20413498.563    20413497.129
                  20413501.500                          50.100          46.200

 19  6 12  0  2 55.0000000  0 16G02R05G15G13G29R06R11G26R12G25G12R04
                                R20G05G21R21
 122239962.934 7  95251938.37244                  23261477.547
                  23261478.145                          43.000          28.600

 107483400.598 8  83598221.005 7                  20106992.258    20106991.527
                  20106995.664                          51.400          46.500

 125338742.321 7  97666587.575 6                  23851164.664
  23851170.070    23851171.297                          43.000          36.900

 123590507.230 7  96304308.48744                  23518483.867
                  23518489.035                          43.800          25.300

 106699828.976 8  83142683.065 8                  20304273.813
  20304278.516    20304278.570                          49.800          50.600

 108976241.405 7                                  20422101.898    20422100.348
                                                        43.400

 122394560.326 7  95195824.287 6                  22904478.219    22904477.605
                  22904483.738                          43.800          39.900

 128302363.114 6  99975922.423 6                  24415132.758
  24415139.688    24415140.621                          39.100          39.800

 123584267.013 6                                  23135238.375    23135238.586
                                                        39.500

 119021497.692 7  92744064.571 7                  22649031.992
  22649040.445    22649040.266                          45.500          44.600

 127024655.873 7  98980282.534 6                  24171988.406
  24171993.930    24171993.516                          44.700          39.700

 125756120.347 6  97810383.039 6                  23484072.148    23484071.652
                  23484076.141                          41.800          38.500

 109787987.770 7  85390744.020 7                  20530904.508    20530903.660
                  20530910.262                          44.500          46.900

 110119124.269 8  85807145.735 7                  20954957.047
  20954959.875    20954960.457                          48.800          46.500

 124624456.708 7  97109961.10344                  23715233.078
                  23715237.895                          42.000          25.800

 109227083.946 8  84954279.310 7                  20411647.250    20411646.520
                  20411651.359                          50.400          45.900

 19  6 12  0  3  0.0000000  0 16G02R05G15G13G29R06R11G26R12G25G12R04
                                R20G05G21R21
 122250142.646 7  95259870.62244                  23263413.555
                  23263415.031                          42.800          27.900

 107489958.041 8  83603321.235 7                  20108218.383    20108218.711
                  20108222.492                          51.300          46.800

 125321114.049 7  97652851.313 6                  23847809.930
  23847816.625    23847817.383                          43.400          37.300

 123577006.987 7  96293788.84944                  23515914.359
                  23515920.230                          43.600          25.500

 106694738.724 8  83138716.635 8                  20303305.406
  20303309.875    20303309.871                          50.100          50.300

 108960337.140 7                                  20419120.852    20419118.949
                                                        43.700

 122407190.838 7  95205648.017 6                  22906841.742    22906841.480
                  22906847.379                          43.900          39.700

 128291874.652 6  99967749.597 6                  24413137.914
  24413143.438    24413144.547                          40.500          40.500

 123585388.482 6                                  23135448.406    23135448.969
                                                        39.700

 119035406.671 7  92754902.736 7                  22651678.656
  22651686.758    22651686.754                          45.300          44.600

 127043467.492 7  98994940.915 6                  24175567.266
  24175573.316    24175573.137                          44.600          39.200

 125776032.231 6  97825870.050 6                  23487790.484    23487789.168
                  23487794.242                          41.000          38.600

 109794176.318 7  85395557.328 7                  20532061.648    20532060.332
                  20532066.816                          44.300          47.000

 110128834.036 8  85814711.792 7                  20956804.391
  20956808.742    20956808.914                          49.200          46.600

 124614375.413 7  97102105.55344                  23713314.539
                  23713318.945                          42.100          26.800

 109217187.125 8  84946581.766 7                  20409798.117    20409796.566
                  20409801.641                          50.700          45.900

 19  6 12  0  3  5.0000000  0 16G02R05G15G13G29R06R11G26R12G25G12R04
                                R20G05G21R21
 122260324.702 6  95267804.68644                  23265351.445
                  23265352.512                          41.500          26.800

 107496536.936 8  83608438.134 7                  20109449.297    20109449.625
                  20109453.289                          51.400          46.800

 125303487.389 7  97639116.209 6                  23844455.250
  23844461.828    23844462.352                          42.900          37.400

 123563513.547 7  96283274.47943                  23513346.797
                  23513352.551                          43.800          23.900

 106689660.336 8  83134759.450 8                  20302338.898
  20302343.309    20302343.480                          50.400          49.700

 108944448.474 7                                  20416143.758    20416142.324
                                                        43.500

 122419834.513 7  95215481.963 6                  22909208.359    22909207.277
                  22909213.055                          43.900          40.200

 128281398.416 6  99959586.297 6                  24411143.688
  24411150.148    24411150.906                          40.100          39.200

 123586530.240 6                                  23135663.992    23135663.379
                                                        40.600

 119049324.920 7  92765748.118 7                  22654327.844
  22654335.125    22654334.945                          45.300          43.900

 127062279.594 7  99009599.685 6                  24179147.445
  24179153.203    24179153.082                          43.200          39.000

 125795951.783 6  97841363.023 6                  23491508.219    23491509.367
                  23491514.559                          40.700          38.900

 109800374.108 7  85400377.820 7                  20533221.250    20533219.816
                  20533225.828                          44.300          47.300

 110138555.897 8  85822287.271 7                  20958654.516
  20958658.457    20958658.570                          50.300          46.700

 124604296.459 6  97094251.82844                  23711396.109
                  23711400.633                          41.200          26.600

 109207295.975 8  84938888.657 7                  20407950.141    20407948.473
                  20407953.195                          50.000          45.900

 19  6 12  0  3 10.0000000  0 16G02R05G15G13G29R06R11G26R12G25G12R04
                                R20G05G21R21
 122270509.178 7  95275740.63144                  23267289.078
                  23267290.789                          42.000          26.400

 107503137.302 8  83613571.763 7                  20110684.172    20110682.855
                  20110686.523                          51.600          46.700

 125285862.423 7  97625382.551 6                  23841102.930
  23841108.805    23841108.273                          43.200          36.900

 123550026.942 7  96272765.45444                  23510780.531
                  23510785.992                          43.600          24.800

 106684593.845 8  83130811.537 8                  20301374.352
  20301379.230    20301379.285                          50.300          50.000

 108928575.333 7                                  20413168.102    20413166.785
                                                        43.900

 122432491.258 7  95225326.103 6                  22911574.477    22911574.570
                  22911580.934                          43.600          39.800

 128270934.520 6  99951432.609 6                  24409152.523
  24409158.398    24409158.980                          39.600          39.700

 123587692.380 6                                  23135879.563    23135879.422
                                                        40.300

 119063252.420 7  92776600.716 7                  22656977.852
  22656985.191    22656985.188                          45.800          43.500

 127081092.175 7  99024258.812 6                  24182727.758
  24182732.988    24182733.160                          44.200          38.100

 125815878.740 6  97856861.741 6                  23495230.258    23495230.117
                  23495234.953                          41.200          39.300

 109806581.082 7  85405205.468 7                  20534381.883    20534381.387
                  20534386.816                          44.900          46.700

 110148289.991 8  85829872.284 7                  20960506.594
  20960511.355    20960511.176                          49.100          46.400

 124594219.976 7  97086400.03444                  23709479.828
                  23709483.648                          42.200          26.700

 109197410.583 8  84931200.015 7                  20406102.719    20406101.402
                  20406106.477                          50.200          46.300

 19  6 12  0  3 15.0000000  0 16G02R05G15G13G29R06R11G26R12G25G12R04
                                R20G05G21R21
 122280695.965 6  95283678.38544                  23269227.383
                  23269228.977                          41.600          26.800

 107509759.118 8  83618722.065 7                  20111922.547    20111922.992
                  20111926.773                          51.300          46.500

 125268239.123 7  97611650.062 6                  23837748.898
  23837754.949    23837755.297                          43.600          38.700

 123536547.174 7  96262261.74544                  23508215.219
                  23508220.738                          43.700          25.300

 106679539.239 8  83126872.885 8                  20300413.133
  20300417.602    20300417.891                          50.200          49.900

 108912717.786 7                                  20410197.117    20410196.621
                                                        44.400

 122445161.144 7  95235180.440 6                  22913947.086    22913945.887
                  22913952.254                          44.300          40.400

 128260482.856 6  99943288.472 6                  24407163.375
  24407169.250    24407169.773                          39.400          39.500

 123588874.720 6                                  23136099.906    23136101.172
                                                        39.900

 119077189.143 7  92787460.493 7                  22659629.766
  22659638.043    22659637.922                          45.700          43.500

 127099905.144 7  99038918.273 6                  24186308.625
  24186312.039    24186312.855                          44.600          38.600

 125835813.488 6  97872366.529 6                  23498954.859    23498954.246
                  23498958.734                          41.000          39.100

 109812797.250 7  85410040.268 7                  20535544.477    20535543.980
                  20535549.762                          45.300          46.000

 110158036.267 8  85837466.782 7                  20962361.094
  20962366.031    20962365.910                          49.100          47.300

 124584145.773 7  97078550.01644                  23707563.211
                  23707566.680                          42.700          26.200

 109187531.038 8  84923515.931 7                  20404256.727    20404254.941
                  20404259.898                          50.100          46.700

 19  6 12  0  3 20.0000000  0 16G02R05G15G13G29R06R11G26R12G25G12R04
                                R20G05G21R21
 122290884.988 7  95291617.86244                  23271166.883
                  23271168.887                          42.200          26.600

 107516402.404 8  83623889.074 7                  20113165.070    20113165.398
                  20113169.180                          50.300          45.900

 125250617.372 7  97597918.908 6                  23834395.258
  23834402.070    23834401.773                          43.800          36.600

 123523074.168 7  96251763.31544                  23505650.617
                  23505656.840                          43.000          24.500

 106674496.435 8  83122943.424 8                  20299453.336
  20299457.570    20299457.742                          50.300          50.500

 108896875.480 7                                  20407228.438    20407227.004
                                                        43.700

 122457844.052 7  95245044.921 6                  22916320.391    22916320.012
                  22916325.676                          43.900          40.500

 128250043.417 6  99935153.848 6                  24405176.063
  24405183.520    24405184.043                          38.500          39.400

 123590077.273 6                                  23136326.172    23136326.617
                                                        39.600

 119091135.032 7  92798327.415 7                  22662284.109
  22662291.566    22662291.445                          45.800          43.700

 127118718.528 7  99053578.042 6                  24189888.250
  24189892.367    24189893.125                          44.700          38.300

 125855755.577 6  97887877.041 6                  23502680.422    23502678.168
                  23502682.656                          41.700          38.900

 109819022.564 7  85414882.163 7                  20536708.258    20536707.176
                  20536712.953                          44.200          46.600

 110167794.613 8  85845070.686 7                  20964217.672
  20964223.137    20964222.781                          49.500          47.600

 124574073.908 7  97070701.82744                  23705645.539
                  23705649.477                          42.700          24.000

 109177657.228 8  84915836.290 7                  20402411.016    20402409.816
                  20402414.656                          49.600          46.300

 19  6 12  0  3 25.0000000  0 16G02R05G15G13G29R06R11G26R12G25G12R04
                                R20G05G21R21
 122301076.365 7  95299559.19044                  23273106.938
                  23273107.711                          43.000          28.100

 107523067.107 8  83629072.722 7                  20114412.250    20114412.344
                  20114415.656                          50.200          45.100

 125232997.317 7  97584188.968 6                  23831040.984
  23831048.441    23831048.438                          42.900          36.100

 123509608.009 7  96241270.21644                  23503088.883
                  23503093.934                          43.300          25.300

 106669465.525 8  83119023.235 8                  20298496.266
  20298500.207    20298500.320                          51.100          51.000

 108881048.557 7                                  20404263.414    20404260.926
                                                        43.900

 122470540.014 7  95254919.555 6                  22918696.102    22918697.016
                  22918702.441                          44.500          39.800

 128239616.215 6  99927028.791 6                  24403192.156
  24403199.730    24403199.375                          38.600          39.000

 123591300.112 6                                  23136553.859    23136555.594
                                                        39.000

 119105090.090 7  92809201.488 7                  22664939.602
  22664947.938    22664947.816                          46.000          44.600

 127137532.328 7  99068238.145 6                  24193467.344
  24193472.574    24193472.746                          44.500          37.600

 125875705.203 6  97903393.401 6                  23506404.422    23506403.223
                  23506407.711                          41.500          38.800

 109825257.085 7  85419731.250 7                  20537873.766    20537873.152
                  20537879.285                          44.600          45.500

 110177565.020 8  85852683.981 7                  20966077.391
  20966082.445    20966082.441                          49.600          47.100

 124564004.463 7  97062855.52344                  23703729.898
                  23703733.777                          42.600          25.600

 109167789.198 8  84908161.166 7                  20400567.539    20400565.871
                  20400570.828                          50.000          44.900

 19  6 12  0  3 30.0000000  0 16G02R05G15G13G29R06R11G26R12G25G12R04
                                R20G05G21R21
 122311270.098 7  95307502.35744                  23275047.039
                  23275047.695                          43.000          27.300

 107529753.201 8  83634273.024 6                  20115663.234    20115663.563
                  20115666.758                          50.500          39.000

 125215378.996 7  97570460.426 5                  23827689.313
  23827694.660    23827695.477                          43.000          35.700

 123496148.798 7  96230782.53944                  23500527.617
                  23500533.195                          43.100          25.000

 106664446.534 8  83115112.339 8                  20297540.742
  20297545.328    20297545.617                          50.800          50.500

 108865237.193 7                                  20401298.742    20401298.363
                                                        43.900

 122483248.993 7  95264804.311 6                  22921073.367    22921073.813
                  22921080.059                          43.800          36.900

 128229201.379 6  99918913.321 6                  24401209.609
  24401216.891    24401217.121                          38.700          38.400

 123592543.249 6                                  23136787.750    23136788.547
                                                        39.600

 119119054.341 7  92820082.724 7                  22667597.195
  22667604.711    22667604.941                          45.100          44.300

 127156346.486 7  99082898.537 6                  24197047.695
  24197052.340    24197053.039                          44.200          38.600

 125895662.426 6  97918915.693 6                  23510128.688    23510129.250
                  23510134.324                          41.400          36.500

 109831500.816 7  85424587.500 6                  20539042.125    20539040.809
                  20539047.059                          44.100          39.700

 110187347.529 8  85860306.719 7                  20967939.367
  20967943.836    20967943.832                          49.500          47.400

 124553937.455 7  97055011.11344                  23701814.133
                  23701817.836                          43.100          26.400

 109157927.024 8  84900490.589 6                  20398724.602    20398722.816
                  20398727.656                          49.800          39.600

 19  6 12  0  3 35.0000000  0 16G02R05G15G13G29R06R11G26R12G25G12R04
                                R20G05G21R21
 122321466.099 7  95315447.29544                  23276987.617
                  23276988.215                          43.800          28.300

 107536460.705 8  83639489.966 7                  20116918.008    20116918.688
                  20116922.352                          51.100          44.000

 125197762.286 7  97556733.130 5                  23824336.563
  23824343.082    23824343.371                          43.100          35.300

 123482696.395 7  96220300.13944                  23497967.953
                  23497973.355                          43.500          24.700

 106659439.420 8  83111210.690 8                  20296588.047
  20296592.574    20296592.805                          50.700          50.800

 108849441.513 7                                  20398339.500    20398338.301
                                                        44.200

 122495970.999 7  95274699.210 6                  22923455.031    22923454.770
                  22923461.488                          43.700          39.300

 128218798.792 6  99910807.435 6                  24399229.445
  24399237.137    24399237.543                          38.500          38.300

 123593806.582 6                                  23137024.273    23137024.250
                                                        39.800

 119133027.733 7  92830971.078 7                  22670256.102
  22670264.027    22670263.848                          45.100          44.000

 127175160.985 7  99097559.162 6                  24200628.313
  24200633.367    24200633.715                          44.700          37.900

 125915627.143 6  97934443.778 6                  23513857.492    23513857.586
                  23513862.777                          41.600          38.000

 109837753.728 7  85429450.852 7                  20540211.602    20540210.168
                  20540216.063                          44.500          44.300

 110197142.080 8  85867938.837 7                  20969802.445
  20969808.027    20969807.965                          49.800          47.700

 124543872.780 7  97047168.50544                  23699899.602
                  23699902.367                          43.000          25.500

 109148070.613 8  84892824.493 7                  20396882.086    20396880.301
                  20396885.258                          50.000          44.200

 19  6 12  0  3 40.0000000  0 16G02R05G15G13G29R06R11G26R12G25G12R04
                                R20G05G21R21
 122331664.485 7  95323394.08144                  23278927.711
                  23278928.484                          42.500          27.500

 107543189.715 8  83644723.649 7                  20118176.594    20118176.805
                  20118180.117                          50.200          44.400

 125180147.373 7  97543007.225 5                  23820985.367
  23820990.305    23820990.535                          43.900          35.000

 123469250.901 7  96209823.15344                  23495409.945
                  23495415.289                          43.400          25.500

 106654444.236 8  83107318.340 8                  20295637.203
  20295642.434    20295642.547                          50.800          50.000

 108833661.402 7                                  20395382.414    20395380.512
                                                        43.600

 122508706.068 7  95284604.236 6                  22925837.258    22925836.996
                  22925843.949                          43.500          39.400

 128208408.540 6  99902711.135 6                  24397252.984
  24397259.973    24397260.262                          38.800          39.500

 123595090.256 6                                  23137266.391    23137265.191
                                                        39.600

 119147010.284 7  92841866.568 7                  22672916.313
  22672923.887    22672923.648                          45.700          43.400

 127193975.837 7  99112220.100 6                  24204209.531
  24204213.238    24204213.879                          44.500          38.700

 125935599.346 6  97949977.680 6                  23517587.703    23517587.207
                  23517592.637                          41.700          37.500

 109844015.904 7  85434321.438 7                  20541382.016    20541381.637
                  20541387.301                          44.500          44.100

 110206948.717 8  85875580.375 7                  20971668.797
  20971673.969    20971673.672                          49.700          47.900

 124533810.500 7  97039327.77144                  23697984.055
                  23697987.289                          43.600          24.100

 109138220.075 8  84885162.970 7                  20395041.344    20395039.793
                  20395044.984                          49.800          44.200

 19  6 12  0  3 45.0000000  0 16G02R05G15G13G29R06R11G26R12G25G12R04
                                R20G05G21R21
 122341865.183 7  95331342.67144                  23280868.609
                  23280869.969                          42.400          26.400

 107549940.056 8  83649973.905 7                  20119439.633    20119439.492
                  20119442.688                          50.200          44.500

 125162534.151 7  97529282.647 5                  23817634.063
  23817638.707    23817638.703                          44.100          35.200

 123455812.276 7  96199351.51744                  23492852.492
                  23492858.305                          43.000          25.300

 106649460.941 8  83103435.250 8                  20294689.430
  20294693.488    20294693.895                          50.300          50.500

 108817896.864 7                                  20392428.063    20392426.043
                                                        43.800

 122521454.018 7  95294519.310 6                  22928224.320    22928224.180
                  22928230.309                          43.300          39.100

 128198030.549 6  99894624.362 6                  24395278.594
  24395285.113    24395285.051                          39.000          39.000

 123596394.073 6                                  23137509.734    23137509.945
                                                        40.100

 119161001.940 7  92852769.158 7                  22675580.109
  22675586.570    22675586.273                          45.800          44.000

 127212791.047 7  99126881.277 6                  24207789.484
  24207794.480    24207794.066                          44.600          38.700

 125955579.032 6  97965517.430 6                  23521318.047    23521318.492
                  23521323.801                          41.300          38.300

 109850287.269 7  85439199.165 7                  20542555.773    20542554.691
                  20542560.234                          44.100          45.100

 110216767.407 8  85883231.305 8                  20973536.984
  20973542.801    20973542.445                          49.600          48.000

 124523750.578 7  97031488.88943                  23696069.555
                  23696072.906                          42.900          23.800

 109128375.319 8  84877505.936 7                  20393201.742    20393199.723
                  20393204.914                          49.900          44.800

 19  6 12  0  3 50.0000000  0 16G02R05G15G13G29R06R11G26R12G25G12R04
                                R20G05G21R21
 122352068.214 7  95339293.10644                  23282809.711
                  23282811.012                          42.600          26.600

 107556711.753 8  83655240.790 7                  20120706.430    20120706.523
                  20120709.953                          50.100          45.000

 125144922.740 7  97515559.442 5                  23814282.836
  23814288.184    23814288.238                          44.200          35.800

 123442380.592 7  96188885.28244                  23490295.242
                  23490301.406                          43.300          24.000

 106644489.615 8  83099561.495 8                  20293743.875
  20293747.641    20293747.754                          51.200          50.700

 108802147.796 7                                  20389477.672    20389475.066
                                                        44.500

 122534214.916 7  95304444.477 6                  22930611.688    22930611.426
                  22930617.441                          43.000          38.200

 128187664.921 6  99886547.270 6                  24393305.742
  24393313.375    24393313.078                          38.300          39.000

 123597718.133 6                                  23137759.125    23137758.277
                                                        40.800

 119175002.750 7  92863678.883 7                  22678242.867
  22678250.617    22678250.613                          45.400          43.700

 127231606.600 7  99141542.749 6                  24211370.055
  24211375.930    24211375.223                          45.000          39.500

 125975566.079 6  97981062.914 6                  23525050.813    23525050.906
                  23525055.980                          41.300          38.000

 109856567.882 7  85444084.082 7                  20543729.688    20543729.074
                  20543734.973                          44.000          44.600

 110226598.155 8  85890891.630 7                  20975407.789
  20975413.371    20975413.133                          49.200          47.700

 124513693.018 7  97023651.82944                  23694156.047
                  23694159.105                          43.500          24.800

 109118536.402 8  84869853.447 7                  20391363.063    20391361.395
                  20391366.938                          50.000          44.500

 19  6 12  0  3 55.0000000  0 16G02R05G15G13G29R06R11G26R12G25G12R04
                                R20G05G21R21
 122362273.645 7  95347245.37744                  23284751.672
                  23284752.973                          42.700          27.600

 107563504.886 8  83660524.325 7                  20121977.422    20121977.043
                  20121980.945                          49.900          44.500

 125127313.057 7  97501837.645 5                  23810930.930
  23810936.570    23810936.801                          44.500          35.600

 123428955.945 7  96178424.52543                  23487740.992
                  23487747.156                          43.800          23.800

 106639530.288 8  83095697.075 8                  20292799.742
  20292804.152    20292804.383                          51.300          50.200

 108786414.248 7                                  20386528.039    20386526.957
                                                        44.700

 122546988.858 7  95314379.743 6                  22933003.672    22933002.473
                  22933007.664                          43.800          38.600

 128177311.632 6  99878479.780 6                  24391333.813
  24391342.383    24391342.789                          37.600          38.900

 123599062.328 6                                  23138009.070    23138009.750
                                                        40.500

 119189012.686 7  92874595.716 7                  22680908.930
  22680917.383    22680917.027                          45.300          44.200

 127250422.484 7  99156204.475 6                  24214950.563
  24214955.559    24214955.086                          44.700          40.200

 125995560.501 7  97996614.116 6                  23528787.180    23528785.277
                  23528790.117                          42.200          38.100

 109862857.705 7  85448976.184 7                  20544906.156    20544904.840
                  20544911.207                          43.900          44.100

 110236440.971 8  85898561.359 7                  20977280.805
  20977286.270    20977286.148                          49.100          47.500

 124503637.895 7  97015816.67843                  23692242.109
                  23692245.695                          43.200          23.800

 109108703.436 8  84862205.596 7                  20389525.148    20389523.129
                  20389528.906                          50.100          44.000

 19  6 12  0  4  0.0000000  0 16G02R05G15G13G29R06R11G26R12G25G12R04
                                R20G05G21R21
 122372481.360 7  95355199.44644                  23286694.148
                  23286695.215                          43.400          26.800

 107570319.378 8  83665824.485 7                  20123251.813    20123251.906
                  20123255.805                          50.700          43.600

 125109705.198 7  97488117.233 5                  23807580.320
  23807586.488    23807586.133                          43.700          35.300

 123415538.241 7  96167969.18244                  23485189.078
                  23485194.246                          43.700          24.600

 106634582.887 8  83091841.951 8                  20291857.945
  20291862.180    20291862.469                          50.500          50.000

 108770696.537 7                                  20383582.055    20383580.855
                                                        43.600

 122559775.629 7  95324324.998 6                  22935396.555    22935395.121
                  22935400.664                          43.600          38.900

 128166970.661 6  99870421.877 6                  24389367.094
  24389374.141    24389375.074                          38.000          38.400

 123600426.813 6                                  23138265.359    23138264.395
                                                        40.500

 119203031.738 7  92885519.644 7                  22683575.758
  22683584.914    22683584.852                          45.300          44.400

 127269238.717 7  99170866.459 6                  24218530.727
  24218537.012    24218536.070                          44.300          39.400

 126015562.457 7  98012171.196 6                  23532522.398    23532520.496
                  23532525.219                          42.300          37.900

 109869156.705 7  85453875.399 7                  20546083.813    20546082.496
                  20546088.980                          44.300          44.500

 110246295.801 8  85906240.449 7                  20979156.547
  20979160.840    20979160.777                          50.100          46.800

 124493585.119 7  97007983.35644                  23690329.102
                  23690331.926                          42.800          25.300

 109098876.274 8  84854562.233 7                  20387687.594    20387687.215
                  20387693.113                          50.000          43.500

 19  6 12  0  4  5.0000000  0 16G02R05G15G13G29R06R11G26R12G25G12R04
                                R20G05G21R21
 122382691.333 7  95363155.27344                  23288637.344
                  23288638.176                          43.700          26.900

 107577155.203 8  83671141.239 7                  20124529.523    20124530.086
                  20124533.984                          50.300          44.300

 125092099.044 7  97474398.149 5                  23804230.188
  23804235.594    23804235.590                          43.900          35.000

 123402127.428 7  96157519.20044                  23482637.500
                  23482641.789                          43.400          24.700

 106629647.331 8  83087996.069 8                  20290919.570
  20290923.453    20290923.449                          51.600          50.300

 108754994.284 7                                  20380639.375    20380638.879
                                                        43.600

 122572575.235 7  95334280.241 6                  22937789.867    22937790.313
                  22937795.855                          43.300          39.300

 128156642.013 6  99862373.590 6                  24387402.633
  24387408.508    24387409.148                          38.900          38.200

 123601811.496 6                                  23138524.680    23138525.125
                                                        41.400

 119217059.751 7  92896450.549 7                  22686246.383
  22686254.074    22686253.895                          44.900          44.800

 127288055.178 7  99185528.616 6                  24222111.594
  24222117.527    24222117.113                          43.600          38.700

 126035571.663 7  98027733.893 6                  23536259.000    23536257.566
                  23536262.172                          42.200          37.900

 109875464.850 7  85458781.745 7                  20547263.789    20547261.535
                  20547268.250                          44.200          44.400

 110256162.571 8  85913928.840 7                  20981034.531
  20981038.941    20981038.879                          49.900          47.200

 124483534.607 7  97000151.79544                  23688416.766
                  23688419.883                          42.800          24.800

 109089054.844 8  84846923.351 7                  20385852.742    20385851.426
                  20385857.203                          50.000          44.300

 19  6 12  0  4 10.0000000  0 16G02R05G15G13G29R06R11G26R12G25G12R04
                                R20G05G21R21
 122392903.722 7  95371112.97744                  23290580.766
                  23290581.539                          43.800          26.500

 107584012.440 8  83676474.645 7                  20125813.352    20125812.973
                  20125816.875                          51.000          45.500

 125074494.797 7  97460680.558 5                  23800879.609
  23800885.484    23800885.598                          43.400          34.700

 123388723.729 7  96147074.76844                  23480086.906
                  23480090.375                          43.400          24.500

 106624723.812 8  83084159.560 8                  20289981.961
  20289987.016    20289987.129                          51.000          50.100

 108739307.896 7                                  20377700.094    20377698.777
                                                        44.100

 122585387.938 7  95344245.642 6                  22940189.008    22940188.395
                  22940193.469                          43.900          38.300

 128146325.807 6  99854334.983 6                  24385439.680
  24385446.082    24385446.195                          37.900          39.000

 123603216.497 7                                  23138788.422    23138789.219
                                                        42.500

 119231096.924 7  92907388.601 7                  22688918.273
  22688926.023    22688926.020                          45.600          43.900

 127306872.024 7  99200191.088 6                  24225691.727
  24225698.246    24225697.480                          44.100          39.000

 126055588.183 6  98043302.289 6                  23539995.320    23539994.707
                  23539998.961                          41.800          39.200

 109881782.276 7  85463695.296 7                  20548444.695    20548442.910
                  20548449.273                          44.700          45.500

 110266041.434 8  85921626.658 7                  20982914.625
  20982918.332    20982918.211                          49.700          47.000

 124473486.591 7  96992322.17644                  23686505.109
                  23686507.172                          43.300          25.500

 109079239.387 8  84839289.110 7                  20384018.367    20384017.168
                  20384023.184                          50.100          45.100

 19  6 12  0  4 15.0000000  0 16G02R05G15G13G29R06R11G26R12G25G12R04
                                R20G05G21R21
 122403118.384 7  95379072.44744                  23292524.922
                  23292525.047                          44.400          27.700

 107590890.860 8  83681824.525 7                  20127100.133    20127099.992
                  20127104.008                          51.000          45.700

 125056892.294 7  97446964.345 5                  23797529.781
  23797535.188    23797535.477                          43.600          34.700

 123375326.907 7  96136635.70443                  23477537.188
                  23477541.477                          43.200          22.900

 106619812.195 8  83080332.331 8                  20289047.508
  20289051.508    20289051.797                          49.800          50.200

 108723637.037 7                                  20374763.820    20374761.684
                                                        44.300

 122598213.283 7  95354220.947 6                  22942588.641    22942588.500
                  22942592.867                          43.000          38.300

 128136021.849 6  99846305.950 6                  24383479.328
  24383485.086    24383485.375                          38.800          38.600

 123604641.642 7                                  23139056.961    23139056.465
                                                        42.800

 119245143.094 7  92918333.663 7                  22691591.906
  22691598.367    22691598.129                          45.400          43.900

 127325689.041 7  99214853.686 6                  24229271.891
  24229279.699    24229279.168                          43.700          39.200

 126075612.133 7  98058876.461 6                  23543734.891    23543734.750
                  23543739.000                          42.000          37.900

 109888108.861 7  85468615.986 7                  20549628.031    20549626.363
                  20549632.141                          44.900          45.900

 110275932.212 8  85929333.756 7                  20984796.398
  20984800.633    20984800.453                          49.600          47.100

 124463440.834 7  96984494.33444                  23684593.008
                  23684595.949                          42.300          24.700

 109069429.767 8  84831659.408 7                  20382185.961    20382184.527
                  20382190.422                          50.200          45.900

 19  6 12  0  4 20.0000000  0 16G02R05G15G13G29R06R11G26R12G25G12R04
                                R20G05G21R21
 122413335.398 7  95387033.76244                  23294469.664
                  23294469.496                          44.100          27.200

 107597790.635 8  83687191.011 7                  20128390.828    20128391.039
                  20128394.938                          51.300          46.500

 125039291.602 7  97433249.492 5                  23794181.125
  23794186.121    23794186.645                          43.700          34.100

 123361937.093 7  96126202.08443                  23474988.281
                  23474993.391                          43.200          22.900

 106614912.531 8  83076514.406 8                  20288114.836
  20288119.773    20288119.945                          50.000          50.000

 108707981.908 7                                  20371830.703    20371828.801
                                                        43.900

 122611051.481 7  95364206.202 6                  22944990.023    22944991.172
                  22944995.660                          43.400          38.800

 128125730.280 6  99838286.520 6                  24381520.289
  24381526.809    24381527.156                          38.400          38.800

 123606086.887 7                                  23139325.734    23139325.828
                                                        42.600

 119259198.263 7  92929285.733 7                  22694265.555
  22694273.539    22694272.773                          46.200          44.700

 127344506.302 7  99229516.464 6                  24232853.031
  24232860.137    24232859.781                          44.000          38.600

 126095643.449 6  98074456.374 6                  23547473.891    23547474.453
                  23547479.176                          41.400          37.900

 109894444.595 7  85473543.774 7                  20550813.023    20550812.293
                  20550818.191                          44.900          46.500

 110285834.987 8  85937050.194 7                  20986681.047
  20986684.637    20986684.457                          49.500          47.500

 124453397.406 7  96976668.28544                  23682681.102
                  23682684.629                          42.300          25.300

 109059626.025 8  84824034.278 7                  20380353.727    20380352.645
                  20380358.305                          50.200          46.100

 19  6 12  0  4 25.0000000  0 16G02R05G15G13G29R06R11G26R12G25G12R04
                                R20G05G21R21
 122423554.753 7  95394996.88744                  23296414.813
                  23296414.000                          44.000          28.300

 107604711.823 8  83692574.162 7                  20129685.531    20129686.328
                  20129690.699                          50.900          46.800

 125021692.794 7  97419536.126 5                  23790832.086
  23790836.906    23790837.605                          43.900          35.100

 123348554.311 7  96115773.96644                  23472442.242
                  23472446.766                          44.000          24.000

 106610024.874 8  83072705.843 8                  20287184.734
  20287189.203    20287189.668                          50.000          50.300

 108692342.619 7                                  20368900.078    20368898.176
                                                        44.000

 122623902.561 7  95374201.474 6                  22947394.617    22947395.180
                  22947400.254                          43.400          38.500

 128115451.108 6  99830276.776 6                  24379562.438
  24379571.184    24379571.004                          37.300          39.900

 123607552.474 7                                  23139599.664    23139600.227
                                                        42.400

 119273262.499 7  92940244.880 7                  22696942.266
  22696950.309    22696949.367                          46.000          44.600

 127363323.818 7  99244179.468 6                  24236433.664
  24236440.008    24236440.121                          43.200          38.600

 126115681.916 6  98090041.860 6                  23551217.516    23551216.902
                  23551221.273                          41.600          36.900

 109900789.824 7  85478478.930 7                  20551999.211    20551997.895
                  20552003.789                          44.900          45.800

 110295749.733 8  85944775.971 7                  20988567.930
  20988571.461    20988571.633                          50.400          47.300

 124443356.387 7  96968844.11844                  23680771.086
                  23680773.676                          42.900          24.500

 109049828.172 8  84816413.714 7                  20378522.602    20378521.285
                  20378526.828                          50.000          45.800

 19  6 12  0  4 30.0000000  0 17G02R05G15G13G29R06R11G26R12G25G12R04
                                R20G05G21R21R07
 122433776.391 7  95402961.79844                  23298359.828
                  23298358.898                          44.100          27.600

 107611654.205 8  83697973.794 7                  20130983.797    20130984.828
                  20130989.082                          50.400          46.800

 125004095.812 7  97405824.196 5                  23787482.258
  23787489.363    23787489.359                          43.400          35.300

 123335178.549 7  96105351.29143                  23469896.375
                  23469901.367                          43.600          23.300

 106605149.202 8  83068906.621 8                  20286257.125
  20286261.652    20286261.766                          50.100          50.200

 108676718.921 7                                  20365971.094    20365969.660
                                                        43.700

 122636766.322 7  95384206.651 6                  22949802.797    22949801.949
                  22949807.730                          43.400          39.800

 128105184.290 6  99822276.666 6                  24377608.484
  24377618.109    24377618.164                          36.500          39.600

 123609038.161 6                                  23139877.023    23139877.000
                                                        41.800

 119287335.681 7  92951210.998 7                  22699620.672
  22699627.660    22699627.656                          46.200          44.000

 127382141.568 7  99258842.631 6                  24240014.828
  24240020.703    24240021.109                          43.400          38.300

 126135727.747 6  98105633.035 6                  23554960.094    23554959.953
                  23554964.555                          41.100          37.900

 109907144.107 7  85483421.179 7                  20553186.594    20553186.922
                  20553193.637                          44.300          47.000

 110305676.411 8  85952511.041 7                  20990457.234
  20990460.883    20990461.172                          49.700          47.600

 124433317.709 6  96961021.77343                  23678860.211
                  23678863.270                          41.600          23.600

 109040036.185 8  84808797.741 7                  20376692.867    20376691.199
                  20376696.742                          50.300          45.800

 129852485.15415 100996449.06016                  24257545.031    24257545.008
                  24257552.777                          35.500          37.200

 19  6 12  0  4 35.0000000  0 17G02R05G15G13G29R06R11G26R12G25G12R04
                                R20G05G21R21R07
 122444000.488 7  95410928.62444                  23300303.938
                  23300304.945                          43.900          26.600

 107618618.010 8  83703390.086 7                  20132286.586    20132287.148
                  20132291.402                          51.100          46.800

 124986500.889 7  97392113.878 5                  23784134.375
  23784141.891    23784140.891                          43.300          35.900

 123321809.998 7  96094934.21743                  23467352.234
                  23467356.992                          43.000          22.000

 106600285.694 8  83065116.876 8                  20285331.719
  20285335.543    20285335.715                          50.000          50.200

 108661111.228 7                                  20363047.070    20363044.934
                                                        44.200

 122649643.110 7  95394221.911 6                  22952212.609    22952212.230
                  22952217.543                          43.600          39.600

 128094930.013 5  99814286.350 6                  24375654.922
  24375666.715    24375666.301                          34.800          39.600

 123610544.161 6                                  23140158.836    23140158.105
                                                        41.100

 119301417.999 7  92962184.234 7                  22702300.750
  22702306.742    22702307.266                          45.700          43.900

 127400959.684 7  99273506.091 6                  24243596.180
  24243601.762    24243602.109                          43.700          36.100

 126155780.871 6  98121229.928 6                  23558705.094    23558703.777
                  23558709.203                          40.700          37.900

 109913507.886 7  85488370.781 7                  20554375.875    20554375.969
                  20554383.270                          43.800          47.200

 110315615.184 8  85960255.532 7                  20992349.102
  20992352.398    20992352.629                          50.600          47.300

 124423281.569 7  96953201.40644                  23676950.523
                  23676954.109                          43.200          25.100

 109030250.280 8  84801186.476 7                  20374864.336    20374862.785
                  20374868.094                          50.300          46.200

 129829752.684 5 100978768.303 6                  24253298.945    24253297.980
                  24253305.285                          35.000          36.400

 19  6 12  0  4 40.0000000  0 17G02R05G15G13G29R06R11G26R12G25G12R04
                                R20G05G21R21R07
 122454226.821 7  95418897.20744                  23302250.188
                  23302251.254                          43.800          26.800

 107625603.039 8  83708822.893 7                  20133593.156    20133593.250
                  20133597.852                          51.000          46.700

 124968907.743 7  97378404.941 6                  23780786.641
  23780793.102    23780793.391                          43.900          36.600

 123308448.440 7  96084522.64243                  23464810.258
                  23464814.137                          43.200          22.900

 106595434.058 8  83061336.379 8                  20284408.492
  20284412.199    20284412.371                          50.500          50.500

 108645519.134 7                                  20360124.523    20360122.504
                                                        44.300

 122662532.545 7  95404247.010 6                  22954624.969    22954623.887
                  22954629.664                          44.000          39.600

 128084688.047 5  99806305.598 6                  24373707.516
  24373716.789    24373717.313                          35.900          39.400

 123612070.348 6                                  23140444.156    23140443.426
                                                        41.300

 119315509.213 7  92973164.389 7                  22704981.063
  22704988.695    22704988.633                          45.700          43.700

 127419777.891 7  99288169.636 6                  24247177.586
  24247182.289    24247182.871                          44.300          36.000

 126175841.318 6  98136832.470 6                  23562450.625    23562450.363
                  23562455.793                          41.100          37.800

 109919880.761 7  85493327.437 7                  20555568.719    20555567.988
                  20555575.176                          44.000          46.800

 110325565.773 8  85968009.234 7                  20994242.164
  20994246.340    20994246.336                          50.800          47.600

 124413247.662 7  96945382.77544                  23675040.773
                  23675044.535                          43.100          25.800

 109020470.170 8  84793579.738 7                  20373036.797    20373035.246
                  20373040.320                          50.000          46.100

 129807019.984 5 100961087.360 6                  24249053.461    24249052.379
                  24249059.449                          34.000          36.500

 19  6 12  0  4 45.0000000  0 17G02R05G15G13G29R06R11G26R12G25G12R04
                                R20G05G21R21R07
 122464455.479 7  95426867.59044                  23304196.211
                  23304197.570                          42.900          28.100

 107632609.378 8  83714272.279 7                  20134903.586    20134903.797
                  20134908.754                          50.800          47.400

 124951316.556 7  97364697.530 6                  23777438.719
  23777446.293    23777446.055                          44.100          36.400

 123295093.977 7  96074116.57644                  23462268.180
                  23462273.406                          42.900          24.600

 106590594.493 8  83057565.292 8                  20283487.609
  20283491.727    20283491.547                          51.300          50.200

 108629942.838 7                                  20357205.570    20357203.668
                                                        43.900

 122675434.766 7  95414282.045 6                  22957039.484    22957040.047
                  22957045.004                          44.400          40.200

 128074458.556 6  99798334.593 6                  24371761.828
  24371770.516    24371770.863                          37.800          40.100

 123613616.675 6                                  23140732.695    23140732.789
                                                        40.000

 119329609.451 7  92984151.582 7                  22707664.648
  22707671.930    22707672.160                          45.000          43.400

 127438596.388 7  99302833.379 6                  24250757.609
  24250763.074    24250763.891                          43.200          36.100

 126195909.009 6  98152440.662 6                  23566198.703    23566197.504
                  23566203.047                          40.800          37.600

 109926262.928 7  85498291.351 7                  20556762.305    20556761.809
                  20556768.645                          44.100          46.700

 110335528.311 8  85975772.257 7                  20996137.805
  20996141.863    20996141.859                          50.600          47.500

 124403216.134 7  96937566.02144                  23673132.844
                  23673135.668                          44.100          25.500

 109010696.024 8  84785977.630 7                  20371209.586    20371207.684
                  20371212.875                          50.600          46.000

 129784287.166 5 100943406.314 6                  24244806.508    24244805.074
                  24244812.027                          32.200          36.100

 19  6 12  0  4 50.0000000  0 17G02R05G15G13G29R06R11G26R12G25G12R04
                                R20G05G21R21R07
 122474686.409 7  95434839.73144                  23306142.227
                  23306144.113                          43.400          28.100

 107639636.950 8  83719738.151 7                  20136217.922    20136218.133
                  20136223.207                          50.800          47.400

 124933727.248 7  97350991.589 6                  23774092.234
  23774099.750    23774098.809                          43.900          38.200

 123281746.561 7  96063716.00743                  23459727.414
                  23459733.227                          42.800          22.900

 106585766.900 8  83053803.526 8                  20282569.469
  20282573.000    20282573.172                          51.000          50.100

 108614382.275 7                                  20354289.430    20354287.293
                                                        44.100

 122688349.712 7  95424327.021 6                  22959457.391    22959456.543
                  22959461.031                          45.000          39.800

 128064241.474 6  99790373.221 6                  24369818.242
  24369827.281    24369826.867                          38.300          40.200

 123615183.169 6                                  23141024.031    23141025.063
                                                        39.600

 119343718.577 7  92995145.705 7                  22710349.539
  22710356.527    22710356.582                          45.700          43.800

 127457414.984 7  99317497.234 6                  24254339.195
  24254343.723    24254344.832                          43.800          36.300

 126215983.774 6  98168054.356 6                  23569946.383    23569946.477
                  23569952.137                          40.600          38.000

 109932654.233 7  85503262.362 7                  20557958.328    20557956.777
                  20557963.145                          44.300          46.600

 110345502.704 8  85983544.512 7                  20998035.336
  20998039.922    20998039.918                          50.500          47.300

 124393186.962 7  96929751.07844                  23671224.922
                  23671227.453                          44.500          27.800

 109000927.788 8  84778380.115 7                  20369384.219    20369383.488
                  20369388.328                          50.300          46.000

 129761554.154 5 100925725.163 6                  24240558.078    24240558.055
                  24240565.707                          32.600          36.400

 19  6 12  0  4 55.0000000  0 17G02R05G15G13G29R06R11G26R12G25G12R04
                                R20G05G21R21R07
 122484919.803 7  95442813.79344                  23308089.398
                  23308091.871                          43.000          27.700

 107646685.793 8  83725220.603 7                  20137536.680    20137536.891
                  20137541.730                          51.000          47.400

 124916139.905 7  97337287.174 6                  23770745.398
  23770752.035    23770751.855                          44.100          37.300

 123268406.276 7  96053320.99043                  23457189.477
                  23457194.996                          42.600          22.600

 106580951.376 8  83050051.180 8                  20281653.281
  20281656.168    20281656.340                          50.900          50.200

 108598837.463 7                                  20351375.672    20351374.473
                                                        44.500

 122701277.434 7  95434381.905 6                  22961876.063    22961875.215
                  22961880.641                          44.300          39.800

 128054036.842 6  99782421.565 6                  24367877.148
  24367884.781    24367884.895                          38.000          40.900

 123616770.000 6                                  23141321.523    23141321.969
                                                        38.900

 119357836.701 7  93006146.856 7                  22713036.477
  22713042.996    22713043.520                          45.700          43.900

 127476233.803 7  99332161.233 6                  24257920.336
  24257925.156    24257926.324                          44.000          36.400

 126236065.757 6  98183673.664 6                  23573696.594    23573696.098
                  23573701.527                          40.600          37.500

 109939054.829 7  85508240.613 7                  20559155.188    20559152.934
                  20559158.945                          43.900          46.500

 110355489.047 8  85991326.083 7                  20999935.578
  20999940.105    20999939.750                          50.000          47.100

 124383160.183 7  96921938.01844                  23669317.539
                  23669320.656                          44.800          26.800

 108991165.589 8  84770787.291 7                  20367560.008    20367558.340
                  20367563.180                          50.000          45.900

 129738821.112 5 100908043.889 5                  24236310.906    24236310.766
                  24236319.125                          32.900          35.100

 19  6 12  0  5  0.0000000  0 17G02R05G15G13G29R06R11G26R12G25G12R04
                                R20G05G21R21R07
 122495155.454 7  95450789.63344                  23310037.219
                  23310039.574                          42.900          28.000

 107653755.842 8  83730719.520 7                  20138859.672    20138860.000
                  20138865.074                          50.900          47.200

 124898554.519 7  97323584.302 6                  23767399.875
  23767406.805    23767405.980                          44.100          38.500

 123255073.141 7  96042931.54943                  23454652.391
                  23454657.910                          42.500          23.000

 106576147.878 8  83046308.188 8                  20280739.039
  20280742.629    20280742.742                          50.300          50.200

 108583308.605 7                                  20348465.922    20348464.605
                                                        44.300

 122714217.798 7  95444446.626 6                  22964297.523    22964298.086
                  22964303.395                          44.500          40.200

 128043844.661 6  99774479.616 6                  24365938.023
  24365945.598    24365945.594                          38.800          40.500

 123618376.842 6                                  23141623.008    23141622.629
                                                        38.800

 119371963.721 7  93017154.920 7                  22715724.906
  22715731.484    22715731.891                          45.300          43.700

 127495052.758 7  99346825.349 6                  24261502.000
  24261506.117    24261507.227                          44.500          36.300

 126256155.150 6  98199298.719 6                  23577449.469    23577449.328
                  23577454.047                          41.300          37.400

 109945464.683 7  85513226.043 7                  20560354.484    20560352.582
                  20560358.711                          44.100          46.600

 110365487.295 8  85999116.926 7                  21001838.086
  21001842.730    21001842.785                          49.900          47.100

 124373135.742 7  96914126.77044                  23667409.047
                  23667412.633                          43.000          27.800

 108981409.309 8  84763199.069 7                  20365736.898    20365735.230
                  20365739.953                          50.500          45.900

 129716088.014 5 100890362.637 5                  24232064.203    24232064.766
                  24232072.539                          34.500          33.800

 19  6 12  0  5  5.0000000  0 17G02R05G15G13G29R06R11G26R12G25G12R04
                                R20G05G21R21R07
 122505393.431 7  95458767.27844                  23311985.828
                  23311987.949                          42.100          28.400

 107660847.130 8  83736234.966 7                  20140185.656    20140186.219
                  20140191.527                          50.300          47.300

 124880971.076 7  97309882.938 6                  23764052.734
  23764059.605    23764059.484                          43.400          37.900

 123241747.165 7  96032547.69443                  23452116.789
                  23452121.898                          42.400          22.300

 106571356.431 8  83042574.595 8                  20279826.789
  20279830.730    20279831.137                          50.400          50.300

 108567795.629 7                                  20345558.555    20345556.652
                                                        43.900

 122727170.896 7  95454521.227 6                  22966722.008    22966721.629
                  22966726.941                          44.300          40.600

 128033664.913 6  99766547.331 6                  24364001.148
  24364008.840    24364008.660                          39.100          40.900

 123620003.774 6                                  23141926.891    23141927.336
                                                        38.400

 119386099.673 7  93028169.935 7                  22718414.727
  22718421.246    22718421.770                          46.000          44.600

 127513871.849 7  99361489.565 6                  24265081.977
  24265087.500    24265088.727                          43.200          36.000

 126276251.552 6  98214929.262 6                  23581202.945    23581201.863
                  23581206.469                          41.300          37.700

 109951883.757 7  85518218.682 7                  20561554.094    20561552.191
                  20561558.203                          44.500          46.800

 110375497.422 8  86006917.039 7                  21003743.172
  21003747.113    21003747.227                          49.700          46.900

 124363113.724 7  96906317.41044                  23665501.250
                  23665504.836                          42.400          27.200

 108971659.000 8  84755615.493 7                  20363914.031    20363914.242
                  20363918.848                          50.200          46.100

 129693354.818 6 100872681.242 5                  24227816.203    24227817.000
                  24227825.359                          36.300          34.300

 19  6 12  0  5 10.0000000  0 17G02R05G15G13G29R06R11G26R12G25G12R04
                                R20G05G21R21R07
 122515633.812 7  95466746.77744                  23313934.508
                  23313936.453                          42.900          27.900

 107667959.605 8  83741766.884 7                  20141516.906    20141516.883
                  20141521.723                          51.100          47.300

 124863389.599 7  97296183.100 6                  23760707.477
  23760714.758    23760714.461                          44.400          38.600

 123228428.348 7  96022169.39643                  23449581.977
                  23449587.203                          42.600          22.200

 106566577.041 8  83038850.393 8                  20278917.578
  20278921.051    20278921.164                          51.100          50.400

 108552298.279 7                                  20342653.898    20342652.113
                                                        43.800

 122740136.582 7  95464605.664 6                  22969149.188    22969148.457
                  22969153.414                          44.700          40.400

 128023497.632 6  99758624.818 6                  24362066.242
  24362074.051    24362073.871                          38.800          41.400

 123621650.870 6                                  23142236.000    23142235.387
                                                        39.400

 119400244.494 7  93039191.870 7                  22721106.055
  22721113.629    22721113.273                          45.800          44.300

 127532691.061 7  99376153.858 6                  24268662.594
  24268668.879    24268669.988                          43.000          36.600

 126296355.075 6  98230565.335 6                  23584957.141    23584955.824
                  23584960.664                          41.300          37.300

 109958312.164 7  85523218.531 7                  20562755.969    20562755.473
                  20562761.488                          44.600          46.800

 110385519.428 8  86014726.396 7                  21005649.805
  21005654.391    21005654.387                          49.500          47.000

 124353094.036 7  96898509.87144                  23663594.078
                  23663598.426                          43.000          27.000

 108961914.613 8  84748036.542 7                  20362093.148    20362092.535
                  20362097.375                          49.600          45.900

 129670621.575 5 100854999.839 5                  24223570.438    24223570.531
                  24223578.422                          35.900          34.700

 19  6 12  0  5 15.0000000  0 17G02R05G15G13G29R06R11G26R12G25G12R04
                                R20G05G21R21R07
 122525876.462 7  95474728.06444                  23315883.805
                  23315885.281                          43.200          27.600

 107675093.356 8  83747315.355 7                  20142851.969    20142852.180
                  20142856.430                          51.000          47.300

 124845810.127 7  97282484.842 6                  23757361.789
  23757369.305    23757369.301                          43.900          38.700

 123215116.751 7  96011796.74243                  23447048.758
                  23447054.336                          42.000          23.000

 106561809.785 8  83035135.652 8                  20278010.391
  20278014.156    20278014.152                          51.100          50.100

 108536817.066 7                                  20339753.195    20339752.113
                                                        43.600

 122753114.984 7  95474699.954 6                  22971576.672    22971576.410
                  22971581.723                          44.900          40.400

 128013342.850 6  99750711.982 6                  24360134.508
  24360140.207    24360140.965                          40.100          40.200

 123623318.156 6                                  23142548.328    23142548.188
                                                        39.600

 119414398.235 7  93050220.754 7                  22723800.148
  22723806.727    22723806.547                          45.300          44.000

 127551510.397 7  99390818.277 5                  24272243.750
  24272249.684    24272251.086                          42.600          35.800

 126316465.837 7  98246207.036 6                  23588712.969    23588711.535
                  23588716.258                          42.000          37.700

 109964749.956 7  85528225.689 7                  20563960.406    20563959.324
                  20563965.457                          44.200          46.500

 110395553.397 8  86022545.072 7                  21007559.781
  21007564.191    21007564.070                          50.300          47.500

 124343076.715 7  96890704.17444                  23661688.016
                  23661693.125                          43.700          27.400

 108952176.287 8  84740462.306 7                  20360273.602    20360272.051
                  20360277.125                          49.900          46.100

 129647888.248 5 100837318.327 5                  24219322.625    24219323.305
                  24219331.898                          35.800          35.800

 19  6 12  0  5 20.0000000  0 17G02R05G15G13G29R06R11G26R12G25G12R04
                                R20G05G21R21R07
 122536121.559 7  95482711.26144                  23317833.039
                  23317835.512                          43.200          27.600

 107682248.282 8  83752880.305 7                  20144190.961    20144191.055
                  20144195.070                          50.700          47.900

 124828232.700 7  97268788.141 6                  23754018.070
  23754024.297    23754024.234                          45.400          39.400

 123201812.382 7  96001429.70244                  23444517.438
                  23444522.371                          42.300          24.300

 106557054.597 8  83031430.315 8                  20277105.914
  20277108.801    20277108.914                          50.200          50.500

 108521351.627 7                                  20336855.430    20336853.059
                                                        44.200

 122766105.893 7  95484803.994 6                  22974007.539    22974007.867
                  22974013.645                          44.700          40.800

 128003200.581 6  99742808.918 6                  24358204.813
  24358211.859    24358211.973                          40.400          40.900

 123625005.588 6                                  23142864.047    23142864.258
                                                        39.800

 119428560.877 7  93061256.575 7                  22726494.773
  22726501.000    22726501.465                          45.600          44.000

 127570329.876 7  99405482.787 6                  24275825.500
  24275830.906    24275832.543                          42.700          36.100

 126336583.508 7  98261854.112 6                  23592467.922    23592467.426
                  23592472.973                          42.300          37.700

 109971196.934 7  85533240.011 7                  20565165.781    20565164.348
                  20565170.715                          44.100          47.000

 110405599.217 8  86030372.987 7                  21009471.438
  21009475.203    21009475.141                          50.300          47.000

 124333061.779 6  96882900.34144                  23659781.641
                  23659786.926                          41.800          26.400

 108942443.922 8  84732892.680 7                  20358454.516    20358453.785
                  20358458.859                          50.000          46.100

 129625154.860 5 100819636.868 6                  24215075.805    24215075.898
                  24215085.078                          34.600          36.700

 19  6 12  0  5 25.0000000  0 17G02R05G15G13G29R06R11G26R12G25G12R04
                                R20G05G21R21R07
 122546368.905 7  95490696.20444                  23319782.617
                  23319786.203                          42.200          28.600

 107689424.348 8  83758461.689 7                  20145532.039    20145532.602
                  20145536.973                          50.300          46.900

 124810657.254 7  97255093.017 6                  23750673.586
  23750679.988    23750679.574                          45.300          40.400

 123188515.183 7  95991068.26143                  23441987.906
                  23441991.727                          42.800          23.300

 106552311.458 8  83027734.353 8                  20276203.367
  20276206.781    20276206.953                          50.500          51.000

 108505902.008 7                                  20333959.258    20333957.707
                                                        43.600

 122779109.431 7  95494917.849 6                  22976441.945    22976440.980
                  22976447.113                          44.500          40.500

 127993070.706 6  99734915.521 6                  24356275.922
  24356283.555    24356284.137                          39.900          41.100

 123626713.151 6                                  23143185.320    23143185.180
                                                        40.400

 119442732.306 7  93072299.240 7                  22729191.344
  22729198.039    22729197.977                          45.800          44.400

 127589149.390 7  99420147.351 6                  24279406.844
  24279411.723    24279413.184                          42.800          36.000

 126356708.387 6  98277506.783 6                  23596225.953    23596225.457
                  23596231.004                          41.300          37.600

 109977653.109 7  85538261.492 7                  20566372.305    20566371.926
                  20566378.527                          44.100          46.100

 110415656.833 8  86038210.100 7                  21011385.094
  21011389.738    21011389.383                          50.700          47.200

 124323049.160 7  96875098.30944                  23657876.477
                  23657881.000                          42.500          25.200

 108932717.556 8  84725327.723 7                  20356637.250    20356635.934
                  20356641.477                          50.200          46.100

 129602421.450 5 100801955.384 6                  24210830.250    24210829.637
                  24210838.703                          33.900          37.700

 19  6 12  0  5 30.0000000  0 17G02R05G15G13G29R06R11G26R12G25G12R04
                                R20G05G21R21R07
 122556618.617 6  95498682.98644                  23321731.773
                  23321736.121                          41.600          27.000

 107696621.675 8  83764059.615 7                  20146878.398    20146878.137
                  20146883.094                          50.900          46.900

 124793083.844 7  97241399.463 6                  23747329.656
  23747336.176    23747335.820                          45.200          39.800

 123175225.197 7  95980712.42743                  23439458.586
                  23439463.051                          42.300          22.800

 106547580.412 8  83024047.824 8                  20275302.766
  20275306.063    20275306.352                          49.700          49.600

 108490468.353 7                                  20331067.773    20331066.223
                                                        43.900

 122792125.584 7  95505041.514 6                  22978876.719    22978875.871
                  22978882.238                          43.900          40.900

 127982953.402 6  99727031.911 6                  24354351.273
  24354359.199    24354359.195                          40.600          41.600

 123628440.910 6                                  23143507.711    23143508.977
                                                        40.400

 119456912.583 7  93083348.805 7                  22731890.008
  22731897.348    22731897.109                          45.900          44.500

 127607968.966 7  99434811.948 5                  24282988.891
  24282993.477    24282994.527                          42.700          35.600

 126376840.344 6  98293164.961 6                  23599984.320    23599985.938
                  23599991.480                          40.900          37.000

 109984118.722 7  85543290.320 7                  20567581.016    20567580.992
                  20567587.473                          44.500          46.600

 110425726.276 8  86046056.415 7                  21013301.242
  21013305.828    21013305.766                          50.300          47.400

 124313038.873 6  96867298.07744                  23655971.828
                  23655976.234                          40.900          24.900

 108922997.164 8  84717767.432 7                  20354821.414    20354819.277
                  20354824.586                          50.000          46.200

 129579688.076 5 100784273.908 6                  24206582.297    24206582.742
                  24206591.336                          34.800          37.100

 19  6 12  0  5 35.0000000  0 17G02R05G15G13G29R06R11G26R12G25G12R04
                                R20G05G21R21R07
 122566870.596 7  95506671.52744                  23323684.078
                  23323687.488                          42.800          28.000

 107703840.098 8  83769673.941 7                  20148228.695    20148228.555
                  20148233.273                          51.000          46.700

 124775512.481 7  97227707.501 6                  23743985.438
  23743992.133    23743991.836                          45.000          39.500

 123161942.460 7  95970362.26343                  23436930.234
                  23436935.344                          43.100          22.500

 106542861.447 8  83020370.713 8                  20274405.094
  20274408.098    20274408.504                          50.500          50.300

 108475050.661 7                                  20328179.211    20328177.426
                                                        44.400

 122805154.283 7  95515174.920 6                  22981316.852    22981315.535
                  22981321.078                          44.900          40.600

 127972848.575 6  99719158.025 6                  24352427.672
  24352435.480    24352435.535                          39.600          40.900

 123630188.722 6                                  23143835.594    23143835.805
                                                        40.600

 119471101.683 7  93094405.249 7                  22734589.156
  22734597.082    22734597.254                          44.700          44.600

 127626788.706 7  99449476.667 6                  24286569.641
  24286574.285    24286575.160                          42.600          36.200

 126396979.169 6  98308828.474 6                  23603746.555    23603745.473
                  23603751.250                          41.100          37.200

 109990593.442 7  85548326.199 7                  20568793.172    20568791.855
                  20568798.223                          44.600          46.800

 110435807.507 8  86053911.924 7                  21015220.328
  21015224.270    21015224.441                          50.800          46.600

 124303030.903 7  96859499.69844                  23654068.023
                  23654071.023                          42.600          26.700

 108913282.789 8  84710211.800 7                  20353006.359    20353004.574
                  20353009.883                          50.300          46.100

 129556954.627 6 100766592.368 6                  24202336.547    24202335.699
                  24202344.059                          36.000          36.700

 19  6 12  0  5 40.0000000  0 17G02R05G15G13G29R06R11G26R12G25G12R04
                                R20G05G21R21R07
 122577125.002 7  95514661.95644                  23325635.383
                  23325639.438                          43.000          28.300

 107711079.698 8  83775304.755 7                  20149583.250    20149582.520
                  20149587.477                          50.800          47.000

 124757943.189 7  97214017.158 6                  23740642.391
  23740648.852    23740648.086                          45.400          40.100

 123148667.007 7  95960017.77543                  23434404.078
                  23434408.953                          42.700          22.800

 106538154.620 8  83016703.056 8                  20273508.727
  20273512.434    20273512.723                          51.400          50.400

 108459648.915 7                                  20325292.094    20325289.371
                                                        44.100

 122818195.413 7  95525318.036 6                  22983756.297    22983755.566
                  22983761.582                          44.000          40.800

 127962756.290 6  99711293.899 6                  24350506.281
  24350514.500    24350515.082                          40.400          39.100

 123631956.686 6                                  23144167.086    23144166.473
                                                        39.900

 119485299.619 7  93105468.566 7                  22737290.766
  22737298.926    22737299.039                          45.200          44.500

 127645608.491 7  99464141.437 5                  24290151.734
  24290155.734    24290156.492                          43.700          35.800

 126417125.181 6  98324497.604 6                  23607507.914    23607508.008
                  23607513.785                          40.900          36.900

 109997077.434 7  85553369.290 7                  20570003.953    20570004.164
                  20570010.410                          43.900          46.400

 110445900.623 8  86061776.685 7                  21017140.945
  21017144.945    21017145.059                          51.100          47.400

 124293025.344 6  96851703.15544                  23652163.617
                  23652167.086                          41.100          26.400

 108903574.524 8  84702660.942 7                  20351191.828    20351189.926
                  20351195.352                          50.000          46.400

 129534221.323 5 100748910.930 5                  24198090.016    24198088.465
                  24198096.824                          35.900          35.300

 19  6 12  0  5 45.0000000  0 17G02R05G15G13G29R06R11G26R12G25G12R04
                                R20G05G21R21R07
 122587381.659 7  95522654.15944                  23327587.750
                  23327590.867                          43.600          29.200

 107718340.487 8  83780952.030 7                  20150940.586    20150941.500
                  20150946.340                          50.200          47.000

 124740376.002 7  97200328.456 6                  23737299.555
  23737306.367    23737305.484                          45.000          40.400

 123135398.816 7  95949678.91343                  23431879.867
                  23431884.156                          43.200          22.200

 106533459.891 8  83013044.832 8                  20272615.398
  20272619.164    20272619.395                          51.400          50.500

 108444263.151 7                                  20322409.258    20322407.590
                                                        44.100

 122831249.143 7  95535470.910 6                  22986198.578    22986198.672
                  22986203.980                          44.500          40.000

 127952676.548 6  99703439.548 6                  24348588.422
  24348595.703    24348596.461                          39.200          39.000

 123633744.743 6                                  23144501.070    23144500.691
                                                        39.700

 119499506.359 7  93116538.752 7                  22739994.172
  22740001.922    22740002.211                          45.400          44.400

 127664428.290 7  99478806.224 6                  24293733.086
  24293737.438    24293737.785                          43.300          36.200

 126437278.353 6  98340172.245 6                  23611272.586    23611272.207
                  23611277.871                          41.000          36.600

 110003570.768 7  85558419.677 7                  20571219.813    20571218.496
                  20571224.629                          44.100          46.700

 110456005.518 8  86069650.627 7                  21019063.773
  21019067.598    21019067.945                          50.700          46.800

 124283022.105 6  96843908.43844                  23650259.047
                  23650263.688                          41.700          25.600

 108893872.265 8  84695114.737 7                  20349378.117    20349377.035
                  20349382.109                          49.700          46.300

 129511487.998 6 100731229.456 6                  24193842.461    24193843.375
                  24193850.797                          36.300          36.400

 19  6 12  0  5 50.0000000  0 17G02R05G15G13G29R06R11G26R12G25G12R04
                                R20G05G21R21R07
 122597640.674 7  95530648.18644                  23329540.633
                  23329542.988                          42.900          29.400

 107725622.403 8  83786615.744 7                  20152303.000    20152303.680
                  20152308.402                          50.300          46.900

 124722810.906 7  97186641.365 6                  23733957.336
  23733963.680    23733963.266                          45.800          39.900

 123122137.937 7  95939345.77143                  23429356.320
                  23429361.195                          42.600          22.000

 106528777.286 8  83009396.049 8                  20271725.078
  20271728.023    20271728.430                          50.500          50.500

 108428893.305 7                                  20319529.367    20319527.230
                                                        44.600

 122844315.327 7  95545633.526 6                  22988643.625    22988642.895
                  22988648.086                          43.900          39.800

 127942609.289 6  99695594.928 6                  24346672.148
  24346680.660    24346681.008                          39.400          39.200

 123635552.978 6                                  23144838.242    23144838.336
                                                        39.200

 119513721.878 7  93127615.759 7                  22742699.836
  22742707.000    22742707.582                          45.200          43.900

 127683248.144 7  99493471.045 6                  24297315.516
  24297319.164    24297319.160                          44.000          36.600

 126457438.213 6  98355852.142 6                  23615036.953    23615037.164
                  23615042.355                          41.300          36.600

 110010073.390 7  85563477.257 7                  20572435.102    20572434.254
                  20572440.152                          44.000          46.100

 110466122.215 8  86077533.771 7                  21020988.109
  21020992.930    21020993.160                          49.500          47.500

 124273021.273 6  96836115.58544                  23648355.789
                  23648360.664                          40.800          26.300

 108884175.987 8  84687573.198 7                  20347566.555    20347564.652
                  20347569.727                          49.700          46.000

 129488754.741 6 100713548.102 5                  24189597.617    24189596.301
                  24189603.371                          36.200          35.800

 19  6 12  0  5 55.0000000  0 17G02R05G15G13G29R06R11G26R12G25G12R04
                                R20G05G21R21R07
 122607901.913 7  95538643.95044                  23331493.586
                  23331495.531                          43.600          29.200

 107732925.256 8  83792295.747 7                  20153669.578    20153669.438
                  20153674.273                          50.300          46.700

 124705247.805 7  97172955.838 6                  23730614.469
  23730620.520    23730620.809                          45.500          40.200

 123108884.188 7  95929018.18943                  23426833.375
                  23426838.836                          42.700          22.800

 106524106.688 8  83005756.622 8                  20270836.039
  20270839.336    20270839.566                          50.400          49.900

 108413539.516 7                                  20316651.977    20316650.426
                                                        44.400

 122857393.949 7  95555805.755 6                  22991091.609    22991090.645
                  22991095.953                          43.900          38.600

 127932554.534 6  99687760.059 6                  24344761.383
  24344766.848    24344766.609                          39.500          39.900

 123637381.200 6                                  23145180.406    23145181.320
                                                        39.200

 119527946.076 7  93138699.544 7                  22745406.570
  22745414.672    22745414.551                          45.400          44.700

 127702067.956 7  99508135.822 6                  24300896.219
  24300900.512    24300900.098                          44.100          37.600

 126477605.151 6  98371537.535 6                  23618802.266    23618803.180
                  23618807.316                          40.800          36.900

 110016585.229 7  85568542.036 7                  20573653.531    20573652.566
                  20573658.465                          44.500          46.500

 110476250.584 8  86085425.996 7                  21022915.836
  21022920.715    21022920.887                          49.800          47.400

 124263022.621 6  96828324.45444                  23646452.313
                  23646457.891                          40.000          25.800

 108874485.691 8  84680036.289 7                  20345755.789    20345754.473
                  20345758.844                          50.000          46.000

 129466021.471 6 100695866.731 5                  24185348.789    24185349.000
                  24185356.301                          36.100          35.600

 19  6 12  0  6  0.0000000  0 17G02R05G15G13G29R06R11G26R12G25G12R04
                                R20G05G21R21R07
 122618165.492 7  95546641.54144                  23333446.000
                  23333448.590                          43.900          29.400

 107740249.252 8  83797992.178 7                  20155039.523    20155039.500
                  20155044.340                          49.600          46.400

 124687686.831 7  97159271.980 6                  23727273.930
  23727280.215    23727279.566                          45.700          40.500

 123095637.764 7  95918696.30543                  23424313.383
                  23424317.965                          43.100          22.900

 106519448.217 8  83002126.649 8                  20269949.852
  20269952.738    20269953.086                          50.900          49.700

 108398201.640 7                                  20313778.102    20313775.496
                                                        44.700

 122870484.996 7  95565987.705 6                  22993539.961    22993540.289
                  22993546.535                          43.200          39.600

 127922512.239 6  99679934.915 6                  24342850.313
  24342855.309    24342855.891                          40.600          38.900

 123639229.582 6                                  23145527.008    23145527.102
                                                        39.200

 119542179.006 7  93149790.133 7                  22748115.063
  22748122.930    22748122.926                          45.300          44.400

 127720887.719 7  99522800.552 6                  24304478.727
  24304482.316    24304481.668                          45.000          37.500

 126497779.186 6  98387228.435 6                  23622570.930    23622570.789
                  23622575.156                          41.600          36.200

 110023106.426 7  85573614.058 7                  20574873.375    20574871.707
                  20574877.719                          43.900          46.400

 110486390.782 8  86093327.443 7                  21024845.141
  21024850.078    21024850.133                          50.200          47.600

 124253026.318 6  96820535.13043                  23644551.336
                  23644555.918                          40.600          23.300

 108864801.466 8  84672504.119 7                  20343946.375    20343944.824
                  20343949.195                          49.900          46.400

 129443288.380 6 100678185.390 6                  24181103.781    24181102.582
                  24181109.770                          37.200          36.800

 19  6 12  0  6  5.0000000  0 17G02R05G15G13G29R06R11G26R12G25G12R04
                                R20G05G21R21R07
 122628431.482 7  95554641.00744                  23335400.344
                  23335402.055                          43.700          29.700

 107747594.424 7  83803705.075 7                  20156414.273    20156413.895
                  20156418.734                          47.600          47.000

 124670128.047 7  97145589.819 6                  23723931.570
  23723937.855    23723937.852                          46.000          40.600

 123082398.749 7  95908380.21943                  23421794.664
                  23421798.777                          42.600          23.000

 106514801.934 8  82998506.165 8                  20269065.359
  20269068.891    20269069.063                          51.700          50.500

 108382879.792 7                                  20310906.305    20310903.582
                                                        43.400

 122883588.543 7  95576179.352 6                  22995993.367    22995991.816
                  22995998.770                          42.300          39.600

 127912482.586 6  99672119.583 6                  24340941.188
  24340947.063    24340947.352                          39.600          38.800

 123641098.114 6                                  23145877.586    23145876.738
                                                        37.900

 119556420.719 7  93160887.560 7                  22750825.250
  22750832.531    22750832.762                          45.300          44.600

 127739707.502 7  99537465.316 6                  24308059.234
  24308063.879    24308063.465                          43.900          37.700

 126517960.093 6  98402924.698 6                  23626339.273    23626339.602
                  23626343.617                          41.400          36.300

 110029636.876 7  85578693.312 7                  20576094.211    20576093.715
                  20576099.496                          43.400          46.700

 110496542.750 8  86101238.074 7                  21026777.156
  21026781.918    21026781.855                          50.000          47.800

 124243032.467 6  96812747.72844                  23642648.461
                  23642654.332                          39.900          26.500

 108855123.352 8  84664976.693 7                  20342138.102    20342136.316
                  20342140.453                          48.100          45.800

 129420555.401 6 100660504.212 6                  24176857.031    24176856.652
                  24176863.254                          37.900          36.200

 19  6 12  0  6 10.0000000  0 17G02R05G15G13G29R06R11G26R12G25G12R04
                                R20G05G21R21R07
 122638699.799 7  95562642.27444                  23337353.758
                  23337356.348                          44.100          29.400

 107754960.631 7  83809434.374 7                  20157791.859    20157792.422
                  20157797.379                          46.700          47.200

 124652571.392 7  97131909.338 6                  23720591.867
  23720597.215    23720597.387                          45.700          40.100

 123069167.052 6  95898069.80443                  23419276.781
                  23419281.070                          41.800          22.600

 106510167.802 8  82994895.159 8                  20268183.047
  20268186.871    20268187.219                          50.300          50.500

 108367574.014 7                                  20308037.742    20308036.191
                                                        43.200

 122896704.511 7  95586380.656 6                  22998446.086    22998446.063
                  22998452.777                          42.100          39.100

 127902465.522 6  99664314.075 6                  24339033.703
  24339040.047    24339040.688                          38.900          39.100

 123642986.688 6                                  23146231.891    23146230.457
                                                        38.300

 119570671.170 7  93171991.804 7                  22753537.016
  22753544.883    22753545.055                          45.000          43.900

 127758527.216 7  99552130.014 6                  24311640.039
  24311644.449    24311644.094                          43.900          37.000

 126538147.899 6  98418626.325 6                  23630110.031    23630109.418
                  23630113.438                          41.300          36.400

 110036176.679 7  85583779.820 7                  20577317.852    20577316.184
                  20577322.313                          43.300          46.500

 110506706.475 8  86109157.862 8                  21028710.984
  21028716.742    21028716.328                          49.300          48.300

 124233040.930 6  96804962.13444                  23640747.594
                  23640752.938                          40.200          24.400

 108845451.238 7  84657453.958 7                  20340331.070    20340329.520
                  20340333.656                          46.800          45.300

 129397822.598 6 100642823.150 5                  24172610.531    24172610.859
                  24172617.574                          37.300          35.600

 19  6 12  0  6 15.0000000  0 17G02R05G15G13G29R06R11G26R12G25G12R04
                                R20G05G21R21R07
 122648970.432 7  95570645.36244                  23339308.727
                  23339310.086                          44.100          29.600

 107762347.914 7  83815180.028 7                  20159173.813    20159173.906
                  20159178.863                          46.500          46.800

 124635016.874 7  97118230.500 6                  23717251.188
  23717256.887    23717256.824                          45.700          40.600

 123055942.674 7  95887765.09943                  23416758.094
                  23416764.434                          42.000          22.600

 106505545.823 8  82991293.612 8                  20267304.016
  20267307.195    20267307.250                          50.200          49.800

 108352284.264 7                                  20305173.148    20305170.426
                                                        43.500

 122909832.863 6  95596591.565 6                  23000905.133    23000903.816
                  23000910.418                          41.800          39.200

 127892460.964 6  99656518.326 6                  24337129.547
  24337137.766    24337137.293                          38.600          39.300

 123644895.360 6                                  23146587.500    23146588.297
                                                        39.100

 119584930.323 7  93183102.837 7                  22756250.445
  22756258.313    22756258.133                          45.100          44.500

 127777346.857 7  99566794.662 6                  24315220.977
  24315226.031    24315225.734                          43.900          38.000

 126558342.719 6  98434333.398 6                  23633881.320    23633881.180
                  23633885.430                          40.700          36.200

 110042725.654 7  85588873.460 7                  20578541.633    20578540.199
                  20578546.211                          43.000          46.000

 110516881.883 8  86117086.743 7                  21030647.234
  21030652.230    21030652.109                          49.400          47.600

 124223051.725 6  96797178.35844                  23638846.609
                  23638852.422                          40.200          25.700

 108835785.337 7  84649936.022 7                  20338524.461    20338523.027
                  20338527.164                          47.000          45.900

 129375089.846 6 100625142.153 5                  24168363.250    24168363.109
                  24168370.059                          37.600          35.200

 19  6 12  0  6 20.0000000  0 17G02R05G15G13G29R06R11G26R12G25G12R04
                                R20G05G21R21R07
 122659243.423 7  95578650.30144                  23341263.555
                  23341265.266                          43.500          29.300

 107769756.272 7  83820942.096 7                  20160559.828    20160559.922
                  20160564.996                          46.900          46.900

 124617464.621 7  97104553.429 6                  23713910.930
  23713916.512    23713916.684                          45.800          41.400

 123042725.684 7  95877466.16343                  23414244.922
                  23414248.918                          42.900          22.800

 106500936.061 8  82987701.596 8                  20266426.359
  20266430.711    20266430.883                          50.800          50.300

 108337010.641 7                                  20302312.078    20302309.121
                                                        43.700

 122922973.605 6  95606812.165 6                  23003362.422    23003362.516
                  23003367.941                          41.900          39.500

 127882469.065 6  99648732.440 6                  24335226.945
  24335234.285    24335235.043                          38.300          37.300

 123646824.081 6                                  23146951.258    23146951.352
                                                        39.700

 119599198.230 7  93194220.670 7                  22758964.883
  22758972.691    22758973.449                          45.200          43.900

 127796166.505 7  99581459.307 6                  24318801.734
  24318806.789    24318806.551                          43.700          37.300

 126578544.267 6  98450045.711 6                  23637654.695    23637653.848
                  23637658.219                          40.800          36.000

 110049284.047 7  85593974.453 7                  20579768.453    20579767.371
                  20579773.148                          43.500          46.000

 110527068.995 8  86125024.761 7                  21032585.867
  21032590.863    21032590.918                          50.000          47.200

 124213064.921 6  96789396.43244                  23636945.969
                  23636951.957                          41.000          25.900

 108826125.466 7  84642422.803 7                  20336719.273    20336717.605
                  20336721.742                          47.500          45.600

 129352357.268 6 100607461.268 6                  24164116.617    24164116.238
                  24164123.895                          38.000          36.200

 19  6 12  0  6 25.0000000  0 17G02R05G15G13G29R06R11G26R12G25G12R04
                                R20G05G21R21R07
 122669518.688 7  95586656.99945                  23343218.453
                  23343219.988                          44.700          30.100

 107777185.695 8  83826720.522 7                  20161949.883    20161949.977
                  20161954.934                          48.100          46.800

 124599914.482 7  97090877.997 6                  23710571.977
  23710576.914    23710576.793                          46.700          41.100

 123029516.097 7  95867172.99043                  23411730.781
                  23411735.305                          42.600          22.500

 106496338.436 8  82984119.033 8                  20265551.344
  20265555.461    20265555.691                          50.300          50.600

 108321753.114 7                                  20299452.297    20299450.043
                                                        43.900

 122936126.696 7  95617042.331 6                  23005824.852    23005824.590
                  23005830.254                          42.600          39.800

 127872489.682 6  99640956.284 6                  24333329.117
  24333334.816    24333335.809                          38.600          38.100

 123648772.811 6                                  23147315.578    23147315.672
                                                        40.200

 119613474.778 7  93205345.249 7                  22761682.109
  22761689.625    22761689.973                          45.100          43.700

 127814986.046 7  99596123.873 6                  24322383.477
  24322388.414    24322388.000                          43.600          36.400

 126598752.730 6  98465763.411 6                  23641427.961    23641427.113
                  23641431.367                          40.500          36.000

 110055851.684 7  85599082.596 7                  20580996.883    20580995.566
                  20581001.227                          43.200          46.600

 110537267.758 8  86132971.846 7                  21034526.164
  21034531.277    21034531.215                          49.900          47.300

 124203080.391 6  96781616.29944                  23635047.242
                  23635052.410                          40.600          25.600

 108816471.707 8  84634914.311 7                  20334915.438    20334913.301
                  20334917.555                          48.200          45.500

 129329624.820 6 100589780.482 6                  24159869.359    24159869.336
                  24159877.105                          38.400          36.200

 19  6 12  0  6 30.0000000  0 18G02R05G15G13G29R06R11G26R12G25G12R04
                                R20G05G21R21R07R22
 122679796.443 7  95594665.64044                  23345174.477
                  23345176.188                          44.000          29.600

 107784636.308 8  83832515.463 7                  20163343.586    20163343.563
                  20163348.047                          49.500          47.000

 124582366.679 7  97077204.406 6                  23707232.430
  23707237.426    23707237.305                          46.600          40.500

 123016314.008 7  95856885.65843                  23409217.992
                  23409222.926                          42.700          22.200

 106491753.097 8  82980546.034 8                  20264678.836
  20264682.250    20264682.656                          50.300          50.800

 108306511.897 7                                  20296595.820    20296593.449
                                                        44.200

 122949292.266 7  95627282.200 6                  23008288.453    23008288.430
                  23008293.504                          43.400          39.400

 127862523.069 6  99633190.084 6                  24331433.664
  24331439.598    24331439.594                          39.000          38.600

 123650741.725 6                                  23147683.766    23147685.031
                                                        41.300

 119627760.090 7  93216476.656 7                  22764400.359
  22764407.992    22764408.105                          45.300          43.900

 127833805.614 7  99610788.471 6                  24325964.953
  24325969.422    24325969.359                          43.900          37.200

 126618968.032 6  98481486.413 6                  23645202.852    23645202.828
                  23645207.195                          41.300          36.200

 110062428.792 7  85604198.135 7                  20582227.016    20582226.168
                  20582231.832                          44.400          46.900

 110547478.384 8  86140928.173 7                  21036469.453
  21036474.801    21036474.504                          49.700          47.600

 124193098.408 6  96773838.12944                  23633148.047
                  23633152.746                          41.700          26.500

 108806824.225 8  84627410.720 7                  20333112.070    20333110.754
                  20333114.891                          49.200          45.600

 129306892.674 6 100572099.911 6                  24155623.641    24155622.676
                  24155630.215                          39.000          36.000

 129718611.77116 100892262.03016                  24300671.492    24300670.996
                  24300677.832                          39.900          36.400

 19  6 12  0  6 35.0000000  0 18G02R05G15G13G29R06R11G26R12G25G12R04
                                R20G05G21R21R07R22
 122690076.483 7  95602676.04245                  23347130.875
                  23347132.820                          44.700          30.100

 107792107.904 8  83838326.704 7                  20164741.188    20164741.398
                  20164745.883                          50.000          46.900

 124564821.124 7  97063532.547 6                  23703893.508
  23703898.680    23703898.559                          46.400          40.700

 123003119.313 7  95846604.08943                  23406706.906
                  23406711.840                          43.200          22.600

 106487179.968 8  82976982.561 8                  20263808.719
  20263812.074    20263812.480                          50.600          50.300

 108291286.708 7                                  20293742.219    20293739.613
                                                        44.800

 122962470.081 7  95637531.590 6                  23010753.883    23010754.797
                  23010760.457                          44.100          39.700

 127852569.048 6  99625433.677 6                  24329538.898
  24329545.828    24329545.414                          38.900          39.200

 123652730.855 6                                  23148056.477    23148057.273
                                                        40.500

 119642054.083 7  93227614.835 7                  22767121.039
  22767128.203    22767128.668                          45.000          44.200

 127852625.105 7  99625452.991 6                  24329546.305
  24329550.715    24329550.477                          43.700          37.600

 126639190.279 6  98497214.788 6                  23648980.008    23648978.809
                  23648982.828                          40.900          36.000

 110069015.266 7  85609320.927 7                  20583459.156    20583457.723
                  20583463.500                          44.000          46.000

 110557700.654 8  86148893.586 7                  21038415.023
  21038419.434    21038419.547                          48.800          47.000

 124183118.674 6  96766061.71844                  23631248.953
                  23631252.949                          41.600          26.500

 108797182.822 8  84619911.863 7                  20331310.539    20331308.754
                  20331313.008                          49.200          45.900

 129284160.717 6 100554419.531 6                  24151375.164    24151376.195
                  24151384.203                          38.400          36.800

 129702468.003 6 100879705.810 6                  24297648.500    24297646.715
                  24297652.961                          40.400          37.100

 19  6 12  0  6 40.0000000  0 18G02R05G15G13G29R06R11G26R12G25G12R04
                                R20G05G21R21R07R22
 122700358.898 7  95610688.31744                  23349087.641
                  23349089.703                          43.600          27.900

 107799600.461 8  83844154.250 7                  20166143.523    20166143.145
                  20166147.516                          49.900          47.000

 124547277.820 7  97049862.448 6                  23700554.891
  23700561.000    23700560.586                          46.000          40.900

 122989932.092 7  95836328.33343                  23404198.703
                  23404202.406                          43.000          22.600

 106482619.059 8  82973428.603 8                  20262940.703
  20262944.586    20262944.816                          50.600          50.400

 108276077.688 7                                  20290892.648    20290890.160
                                                        44.800

 122975660.311 7  95647790.651 6                  23013222.883    23013223.797
                  23013229.105                          43.900          39.700

 127842627.661 6  99617687.128 6                  24327647.102
  24327654.383    24327653.441                          39.400          39.100

 123654740.021 6                                  23148433.641    23148432.676
                                                        40.600

 119656356.735 7  93238759.757 7                  22769842.844
  22769849.539    22769849.828                          45.800          43.300

 127871444.511 7  99640117.443 6                  24333127.445
  24333132.617    24333131.617                          44.000          37.400

 126659419.430 6  98512948.581 6                  23652756.109    23652756.438
                  23652760.453                          41.200          36.200

 110075611.026 7  85614450.981 7                  20584691.008    20584690.395
                  20584696.410                          43.800          46.900

 110567934.606 8  86156868.099 7                  21040362.953
  21040366.895    21040367.066                          49.500          47.100

 124173141.268 7  96758287.11844                  23629350.500
                  23629353.910                          42.300          25.300

 108787547.525 8  84612417.720 7                  20329509.766    20329507.863
                  20329512.117                          49.700          46.100

 129261429.049 6 100536739.384 6                  24147129.508    24147129.836
                  24147138.547                          37.800          36.800

 129686321.693 6 100867147.587 6                  24294622.344    24294622.203
                  24294629.035                          39.900          37.200

 19  6 12  0  6 45.0000000  0 18G02R05G15G13G29R06R11G26R12G25G12R04
                                R20G05G21R21R07R22
 122710643.596 7  95618702.36744                  23351044.695
                  23351046.465                          43.400          29.500

 107807114.104 8  83849998.185 7                  20167548.898    20167549.109
                  20167553.477                          51.200          46.900

 124529736.732 7  97036194.076 6                  23697216.305
  23697222.355    23697222.176                          45.800          40.800

 122976752.296 7  95826058.36643                  23401691.438
                  23401694.730                          43.900          22.900

 106478070.328 8  82969884.138 8                  20262074.797
  20262078.797    20262079.145                          50.300          50.300

 108260884.890 7                                  20288045.297    20288043.395
                                                        44.600

 122988862.748 7  95658059.235 6                  23015693.523    23015693.617
                  23015699.277                          44.500          39.800

 127832698.905 6  99609950.459 6                  24325758.672
  24325765.484    24325764.953                          39.400          39.000

 123656769.229 6                                  23148811.266    23148812.297
                                                        40.700

 119670667.972 7  93249911.366 7                  22772566.508
  22772572.910    22772573.258                          45.700          43.400

 127890263.759 7  99654781.797 6                  24336708.234
  24336712.820    24336712.758                          43.700          36.900

 126679655.229 6  98528687.529 5                  23656535.484    23656535.695
                  23656539.008                          41.300          34.800

 110082216.034 7  85619588.214 7                  20585926.211    20585925.598
                  20585931.848                          44.000          46.700

 110578180.223 8  86164851.700 7                  21042313.164
  21042316.754    21042316.574                          50.900          47.000

 124163166.191 6  96750514.33744                  23627451.430
                  23627456.246                          41.400          25.800

 108777918.367 8  84604928.380 7                  20327710.234    20327708.449
                  20327713.055                          50.000          45.700

 129238697.573 6 100519059.371 6                  24142882.352    24142882.563
                  24142890.805                          38.800          37.200

 129670172.900 6 100854587.400 6                  24291597.016    24291595.582
                  24291603.355                          38.600          37.000

 19  6 12  0  6 50.0000000  0 18G02R05G15G13G29R06R11G26R12G25G12R04
                                R20G05G21R21R07R22
 122720930.617 7  95626718.22145                  23353002.609
                  23353004.145                          44.500          30.300

 107814648.618 8  83855858.378 7                  20168959.305    20168958.691
                  20168962.945                          51.600          46.500

 124512197.871 7  97022527.437 6                  23693877.734
  23693884.781    23693884.777                          45.500          40.300

 122963579.926 7  95815794.20243                  23399184.031
                  23399188.262                          44.400          22.800

 106473533.800 8  82966349.193 8                  20261211.984
  20261215.281    20261215.277                          49.900          50.300

 108245708.247 7                                  20285200.359    20285198.574
                                                        44.500

 123002077.442 7  95668337.295 6                  23018166.953    23018166.813
                  23018171.297                          44.500          39.000

 127822782.782 6  99602223.602 6                  24323870.609
  24323878.594    24323878.355                          38.000          39.900

 123658818.376 6                                  23149195.906    23149195.059
                                                        41.000

 119684987.823 7  93261069.692 7                  22775291.250
  22775297.184    22775297.707                          45.500          43.400

 127909082.925 7  99669446.075 6                  24340289.484
  24340293.309    24340293.715                          43.700          37.100

 126699897.806 6  98544431.736 5                  23660317.906    23660316.238
                  23660318.730                          41.100          35.000

 110088830.490 7  85624732.764 7                  20587162.914    20587161.715
                  20587168.434                          43.900          46.500

 110588437.497 8  86172844.383 7                  21044264.820
  21044269.055    21044268.934                          49.500          47.500

 124153193.427 6  96742743.35944                  23625553.867
                  23625558.039                          41.700          25.300

 108768295.374 8  84597443.839 7                  20325912.430    20325910.762
                  20325915.367                          50.300          45.900

 129215966.359 6 100501379.572 5                  24138636.969    24138636.355
                  24138644.715                          38.100          35.700

 129654021.493 6 100842025.225 6                  24288571.531    24288570.918
                  24288577.871                          37.600          36.800

 19  6 12  0  6 55.0000000  0 18G02R05G15G13G29R06R11G26R12G25G12R04
                                R20G05G21R21R07R22
 122731219.977 7  95634735.89844                  23354959.805
                  23354961.750                          44.100          29.100

 107822204.210 8  83861734.930 7                  20170372.383    20170372.121
                  20170376.141                          51.200          46.600

 124494661.291 7  97008862.592 6                  23690540.180
  23690547.930    23690547.750                          44.700          41.100

 122950415.046 7  95805535.85344                  23396679.953
                  23396682.895                          43.900          24.500

 106469009.470 8  82962823.735 8                  20260351.172
  20260354.645    20260354.875                          49.700          50.200

 108230547.720 7                                  20282358.914    20282357.480
                                                        44.600

 123015304.411 7  95678624.948 6                  23020642.266    23020642.004
                  23020646.492                          44.100          39.900

 127812879.263 6  99594506.605 6                  24321985.250
  24321993.820    24321993.875                          37.100          39.700

 123660887.587 6                                  23149582.844    23149582.113
                                                        40.600

 119699316.267 7  93272234.709 7                  22778017.398
  22778024.563    22778025.027                          45.300          43.500

 127927901.899 7  99684110.215 6                  24343870.383
  24343874.969    24343874.789                          44.100          37.300

 126720147.152 6  98560181.239 5                  23664097.883    23664097.859
                  23664100.234                          41.000          34.800

 110095454.081 7  85629884.465 7                  20588402.266    20588400.715
                  20588407.434                          44.300          46.900

 110598706.412 8  86180846.129 7                  21046219.148
  21046223.031    21046223.027                          49.400          46.800

 124143223.027 7  96734974.20644                  23623657.406
                  23623660.699                          42.200          27.100

 108758678.570 8  84589964.100 7                  20324114.523    20324112.973
                  20324117.695                          50.300          46.100

 129193235.373 6 100483699.922 6                  24134390.367    24134390.461
                  24134398.234                          39.000          36.000

 129637867.474 6 100829461.054 6                  24285543.961    24285543.699
                  24285550.887                          36.800          36.600

 19  6 12  0  7  0.0000000  0 18G02R05G15G13G29R06R11G26R12G25G12R04
                                R20G05G21R21R07R22
 122741511.627 7  95642755.37245                  23356918.578
                  23356920.465                          43.700          30.900

 107829780.793 8  83867627.840 7                  20171789.516    20171789.492
                  20171793.625                          51.000          46.800

 124477126.988 7  96995199.513 6                  23687203.484
  23687210.824    23687210.762                          44.000          39.900

 122937257.639 7  95795283.33743                  23394175.883
                  23394179.645                          43.800          23.200

 106464497.359 8  82959307.815 8                  20259492.297
  20259495.477    20259495.766                          49.900          50.200

 108215403.356 7                                  20279520.758    20279518.738
                                                        44.600

 123028543.530 7  95688922.055 6                  23023119.438    23023118.590
                  23023123.898                          43.600          40.100

 127802988.355 6  99586799.439 6                  24320103.281
  24320110.035    24320111.438                          37.500          38.900

 123662976.852 6                                  23149974.734    23149974.945
                                                        40.900

 119713653.283 7  93283406.405 7                  22780745.555
  22780752.719    22780753.125                          45.600          43.700

 127946720.671 7  99698774.192 6                  24347452.047
  24347455.930    24347455.867                          43.700          38.300

 126740403.197 6  98575935.944 5                  23667880.867    23667880.605
                  23667883.219                          41.600          35.700

 110102087.047 7  85635043.418 7                  20589642.500    20589642.004
                  20589648.488                          43.800          46.900

 110608986.943 8  86188856.941 7                  21048175.391
  21048179.215    21048179.445                          49.300          47.700

 124133254.957 7  96727206.89444                  23621760.984
                  23621763.633                          42.500          26.700

 108749067.887 8  84582489.134 7                  20322318.859    20322317.660
                  20322322.500                          49.900          46.400

 129170504.688 6 100466020.518 6                  24130144.328    24130144.188
                  24130151.605                          39.400          36.200

 129621710.964 6 100816894.901 6                  24282519.742    24282517.254
                  24282523.969                          38.300          36.500

 19  6 12  0  7  5.0000000  0 18G02R05G15G13G29R06R11G26R12G25G12R04
                                R20G05G21R21R07R22
 122751805.633 7  95650776.65544                  23358877.617
                  23358878.918                          44.100          29.500

 107837378.257 8  83873536.969 7                  20173210.953    20173210.574
                  20173214.594                          50.900          46.800

 124459595.034 7  96981538.259 6                  23683867.438
  23683875.070    23683874.891                          44.200          41.100

 122924107.778 7  95785036.71043                  23391673.242
                  23391677.121                          44.100          22.900

 106459997.491 8  82955801.427 8                  20258636.359
  20258639.832    20258640.121                          50.800          51.000

 108200275.405 7                                  20276685.797    20276684.012
                                                        44.200

 123041794.899 7  95699228.655 6                  23025598.453    23025599.953
                  23025605.262                          44.400          40.200

 127793110.078 6  99579102.089 6                  24318222.867
  24318230.910    24318231.375                          36.200          39.400

 123665086.079 6                                  23150368.695    23150369.492
                                                        41.300

 119727998.877 7  93294584.785 7                  22783475.938
  22783482.281    22783482.453                          45.300          43.000

 127965539.306 7  99713438.059 6                  24351032.125
  24351038.059    24351037.762                          43.100          38.400

 126760666.019 6  98591695.919 5                  23671665.023    23671663.590
                  23671666.551                          41.600          35.600

 110108729.212 7  85640209.547 7                  20590885.305    20590883.988
                  20590890.121                          43.600          46.600

 110619279.075 8  86196876.781 7                  21050134.500
  21050137.621    21050137.852                          49.900          46.800

 124123289.245 7  96719441.39144                  23619863.898
                  23619867.250                          42.600          26.000

 108739463.333 8  84575018.921 7                  20320523.773    20320522.691
                  20320527.531                          49.900          46.100

 129147774.332 6 100448341.384 6                  24125898.344    24125898.320
                  24125905.855                          39.600          36.800

 129605551.855 6 100804326.704 5                  24279492.477    24279491.160
                  24279497.645                          39.200          35.800

 19  6 12  0  7 10.0000000  0 18G02R05G15G13G29R06R11G26R12G25G12R04
                                R20G05G21R21R07R22
 122762102.052 7  95658799.86244                  23360836.906
                  23360838.793                          42.900          29.300

 107844996.771 8  83879462.485 7                  20174636.031    20174636.008
                  20174639.906                          51.100          46.700

 124442065.425 7  96967878.857 6                  23680531.844
  23680538.656    23680538.828                          45.400          40.000

 122910965.447 7  95774795.93743                  23389171.555
                  23389176.430                          43.400          23.600

 106455509.912 8  82952304.607 8                  20257782.797
  20257785.977    20257786.031                          51.000          50.200

 108185163.698 7                                  20273853.898    20273851.762
                                                        43.900

 123055058.485 7  95709544.773 6                  23028082.141    23028081.645
                  23028087.543                          44.500          40.900

 127783244.545 6  99571414.684 6                  24316346.102
  24316353.383    24316354.082                          37.800          39.500

 123667215.395 6                                  23150766.953    23150766.691
                                                        40.200

 119742353.074 7  93305769.881 7                  22786207.297
  22786213.992    22786214.047                          45.500          43.600

 127984357.813 7  99728101.816 6                  24354614.031
  24354619.379    24354618.789                          43.200          38.200

 126780935.610 7  98607461.140 6                  23675449.563    23675448.832
                  23675451.914                          42.300          36.000

 110115380.969 7  85645383.142 7                  20592129.078    20592128.582
                  20592134.480                          44.100          46.700

 110629582.931 8  86204905.755 7                  21052095.625
  21052098.922    21052098.742                          50.300          47.500

 124113325.900 7  96711677.74444                  23617967.484
                  23617971.246                          42.100          26.800

 108729865.032 8  84567553.574 7                  20318730.375    20318728.590
                  20318733.664                          50.100          46.500

 129125044.340 6 100430662.494 6                  24121651.273    24121651.602
                  24121659.141                          39.200          37.200

 129589390.284 6 100791756.584 5                  24276467.773    24276464.227
                  24276470.477                          40.600          35.600

 19  6 12  0  7 15.0000000  0 18G02R05G15G13G29R06R11G26R12G25G12R04
                                R20G05G21R21R07R22
 122772400.772 7  95666824.82744                  23362796.711
                  23362797.777                          43.500          28.600

 107852636.204 8  83885404.264 7                  20176064.328    20176064.773
                  20176069.023                          51.500          46.700

 124424538.158 7  96954221.238 6                  23677195.992
  23677203.449    23677203.445                          45.000          40.600

 122897830.638 7  95764561.03643                  23386670.516
                  23386676.621                          42.500          22.600

 106451034.565 8  82948817.323 8                  20256930.148
  20256933.855    20256933.676                          50.800          50.500

 108170068.158 7                                  20271025.164    20271022.441
                                                        44.400

 123068334.214 7  95719870.306 6                  23030566.688    23030566.309
                  23030572.090                          43.900          40.500

 127773391.678 6  99563737.119 6                  24314470.211
  24314478.430    24314479.422                          37.300          38.700

 123669364.700 6                                  23151167.391    23151167.250
                                                        38.700

 119756715.784 7  93316961.611 7                  22788939.945
  22788946.816    22788946.813                          45.100          43.100

 128003176.154 6  99742765.437 6                  24358194.844
  24358200.426    24358199.719                          41.700          38.300

 126801211.922 6  98623231.588 5                  23679234.586    23679235.031
                  23679238.109                          41.800          35.800

 110122041.902 7  85650563.867 7                  20593374.391    20593372.723
                  20593378.969                          44.000          46.100

 110639898.416 8  86212943.782 7                  21054058.914
  21054061.449    21054061.563                          50.300          47.100

 124103364.905 7  96703915.94244                  23616072.406
                  23616075.406                          42.300          27.100

 108720272.920 8  84560093.040 7                  20316937.539    20316936.223
                  20316941.414                          50.300          46.400

 129102314.576 6 100412983.833 6                  24117404.883    24117405.445
                  24117413.219                          39.000          36.200

 129573226.177 6 100779184.494 6                  24273438.383    24273436.363
                  24273441.789                          40.200          36.400

 19  6 12  0  7 20.0000000  0 18G02R05G15G13G29R06R11G26R12G25G12R04
                                R20G05G21R21R07R22
 122782701.841 7  95674851.63244                  23364756.305
                  23364758.895                          43.000          29.300

 107860296.496 8  83891362.264 7                  20177497.719    20177497.813
                  20177501.711                          51.000          46.500

 124407013.211 7  96940565.457 6                  23673862.156
  23673867.738    23673868.379                          45.800          39.700

 122884703.403 7  95754332.02343                  23384172.961
                  23384178.598                          42.800          22.900

 106446571.422 8  82945339.558 8                  20256081.203
  20256085.320    20256085.023                          50.700          50.300

 108154988.952 7                                  20268199.391    20268197.840
                                                        44.500

 123081622.103 7  95730205.352 6                  23033052.484    23033050.699
                  23033057.887                          43.300          40.200

 127763551.462 6  99556069.429 6                  24312598.047
  24312605.152    24312606.262                          37.000          39.100

 123671534.045 6                                  23151574.578    23151573.145
                                                        38.700

 119771086.999 7  93328159.952 7                  22791673.930
  22791682.090    22791682.320                          45.000          43.800

 128021994.233 7  99757428.859 6                  24361776.336
  24361781.215    24361780.625                          42.200          38.100

 126821494.765 7  98639007.126 6                  23683022.453    23683022.898
                  23683026.211                          42.100          36.300

 110128712.309 7  85655751.955 7                  20594622.031    20594620.480
                  20594626.848                          43.400          46.100

 110650225.416 8  86220990.791 7                  21056024.375
  21056026.090    21056026.438                          50.900          47.000

 124093406.226 7  96696155.93544                  23614178.289
                  23614180.645                          43.600          26.400

 108710686.952 8  84552637.299 7                  20315147.531    20315144.691
                  20315149.883                          50.300          46.800

 129079585.117 6 100395305.385 6                  24113159.273    24113159.250
                  24113166.668                          39.400          36.400

 129557059.458 6 100766610.423 5                  24270408.797    24270408.066
                  24270413.023                          39.000          35.600

 19  6 12  0  7 25.0000000  0 18G02R05G15G13G29R06R11G26R12G25G12R04
                                R20G05G21R21R07R22
 122793005.196 7  95682880.21344                  23366716.367
                  23366719.719                          42.400          29.200

 107867977.715 8  83897336.560 7                  20178934.297    20178934.273
                  20178937.938                          50.800          46.500

 124389490.595 7  96926911.475 6                  23670528.594
  23670533.648    23670533.938                          46.000          40.400

 122871583.664 7  95744108.87343                  23381676.594
                  23381682.172                          43.200          22.500

 106442120.529 8  82941871.329 8                  20255234.195
  20255238.078    20255237.898                          49.900          51.100

 108139925.898 7                                  20265376.117    20265374.566
                                                        45.200

 123094922.116 7  95740549.777 6                  23035541.023    23035540.883
                  23035547.832                          43.300          40.000

 127753723.921 6  99548411.601 6                  24310726.891
  24310736.867    24310736.746                          36.600          39.400

 123673723.274 6                                  23151982.086    23151983.703
                                                        38.000

 119785466.698 7  93339364.902 7                  22794410.734
  22794418.016    22794418.188                          44.600          43.700

 128040812.091 7  99772092.122 6                  24365356.570
  24365362.680    24365362.207                          42.500          38.800

 126841784.253 6  98654787.848 6                  23686811.570    23686812.016
                  23686815.680                          41.600          37.200

 110135391.894 7  85660947.197 7                  20595869.922    20595869.074
                  20595875.207                          43.900          46.200

 110660563.903 8  86229046.754 7                  21057991.398
  21057993.465    21057993.695                          50.500          47.100

 124083449.825 7  96688397.71544                  23612283.383
                  23612286.090                          42.900          25.600

 108701107.181 8  84545186.358 7                  20313356.617    20313354.949
                  20313360.023                          50.400          45.900

 129056856.019 6 100377627.198 6                  24108913.242    24108913.570
                  24108921.461                          38.800          36.800

 129540890.192 6 100754034.338 5                  24267380.617    24267378.363
                  24267382.852                          39.400          33.300

 19  6 12  0  7 30.0000000  0 18G02R05G15G13G29R06R11G26R12G25G12R04
                                R20G05G21R21R07R22
 122803310.901 7  95690910.63644                  23368678.094
                  23368680.449                          42.800          29.000

 107875679.759 8  83903327.030 7                  20180375.414    20180375.273
                  20180378.938                          50.700          46.200

 124371970.382 7  96913259.364 6                  23667194.961
  23667199.723    23667199.660                          46.700          40.200

 122858471.491 7  95733891.60343                  23379182.352
                  23379186.523                          43.600          22.800

 106437681.872 8  82938412.637 8                  20254389.148
  20254393.148    20254393.145                          50.300          50.100

 108124879.190 7                                  20262557.352    20262554.512
                                                        44.600

 123108234.165 7  95750903.580 6                  23038032.500    23038032.238
                  23038038.371                          43.300          40.400

 127743909.118 6  99540763.713 6                  24308859.672
  24308868.770    24308868.648                          37.300          40.400

 123675932.556 6                                  23152398.906    23152398.059
                                                        39.200

 119799854.931 7  93350576.501 7                  22797149.094
  22797156.727    22797156.605                          45.000          43.800

 128059629.716 7  99786755.187 6                  24368937.570
  24368943.094    24368943.090                          42.300          39.000

 126862080.424 7  98670573.758 6                  23690601.984    23690602.664
                  23690605.977                          42.900          37.700

 110142080.904 7  85666149.761 7                  20597121.617    20597120.652
                  20597126.785                          44.100          46.600

 110670913.967 8  86237111.733 7                  21059960.805
  21059962.695    21059963.160                          50.900          46.900

 124073495.807 7  96680641.32144                  23610388.484
                  23610391.836                          42.300          26.300

 108691533.602 8  84537740.234 7                  20311567.172    20311565.270
                  20311570.227                          50.200          46.900

 129034127.339 6 100359949.348 6                  24104667.117    24104667.914
                  24104675.336                          38.900          36.700

 129524718.360 6 100741456.253 5                  24264349.383    24264348.066
                  24264352.438                          38.800          33.000

 19  6 12  0  7 35.0000000  0 18G02R05G15G13G29R06R11G26R12G25G12R04
                                R20G05G21R21R07R22
 122813618.938 7  95698942.85944                  23370639.344
                  23370642.344                          42.700          28.800

 107883402.821 8  83909333.857 7                  20181820.617    20181819.887
                  20181823.438                          50.800          46.300

 124354452.610 7  96899609.180 6                  23663861.477
  23663865.945    23663866.176                          46.300          40.900

 122845366.962 7  95723680.27343                  23376688.789
                  23376693.371                          43.400          21.800

 106433255.589 8  82934963.586 8                  20253546.664
  20253550.664    20253550.660                          50.500          50.200

 108109848.793 7                                  20259740.250    20259738.934
                                                        44.000

 123121558.383 7  95761266.860 6                  23040525.664    23040525.285
                  23040531.770                          43.200          40.500

 127734107.023 6  99533125.695 6                  24306994.742
  24307002.961    24307003.367                          37.300          40.000

 123678161.830 6                                  23152814.445    23152815.711
                                                        38.800

 119814251.677 7  93361794.744 7                  22799888.633
  22799896.383    22799896.145                          44.300          43.500

 128078447.134 7  99801418.090 6                  24372517.820
  24372523.578    24372523.574                          42.800          39.100

 126882383.180 7  98686364.790 6                  23694395.508    23694393.254
                  23694397.508                          42.500          37.400

 110148779.274 7  85671359.615 7                  20598375.211    20598373.074
                  20598378.617                          43.700          46.300

 110681275.616 8  86245185.743 7                  21061932.664
  21061934.438    21061934.609                          50.900          46.800

 124063544.137 7  96672886.78544                  23608494.906
                  23608498.551                          42.300          27.400

 108681966.321 8  84530299.032 7                  20309779.500    20309777.832
                  20309783.023                          50.300          46.800

 129011399.032 6 100342271.814 6                  24100423.148    24100421.363
                  24100429.137                          38.800          37.200

 129508544.123 6 100728876.282 5                  24261318.836    24261318.223
                  24261323.297                          38.700          33.300

 19  6 12  0  7 40.0000000  0 18G02R05G15G13G29R06R11G26R12G25G12R04
                                R20G05G21R21R07R22
 122823929.230 7  95706976.85444                  23372601.836
                  23372603.957                          43.600          29.300

 107891146.681 8  83915356.860 7                  20183268.898    20183268.758
                  20183272.656                          51.400          46.700

 124336937.198 7  96885960.806 6                  23660528.109
  23660533.281    23660533.688                          45.600          40.100

 122832269.920 7  95713474.82043                  23374196.023
                  23374200.605                          43.700          22.500

 106428841.502 8  82931524.037 8                  20252706.945
  20252710.711    20252711.059                          49.900          50.300

 108094834.683 7                                  20256925.492    20256924.645
                                                        44.500

 123134894.527 7  95771639.397 6                  23043021.141    23043020.762
                  23043026.777                          43.900          39.800

 127724317.624 6  99525497.594 6                  24305131.547
  24305140.645    24305140.523                          38.100          39.700

 123680411.046 6                                  23153236.016    23153237.398
                                                        39.000

 119828656.805 7  93373019.537 7                  22802630.164
  22802636.801    22802636.797                          45.200          43.600

 128097264.233 7  99816080.747 6                  24376099.180
  24376104.762    24376104.816                          42.800          38.700

 126902692.642 7  98702161.016 6                  23698186.477    23698186.215
                  23698190.469                          42.600          37.800

 110155486.980 7  85676576.719 7                  20599629.055    20599628.559
                  20599633.750                          43.800          46.200

 110691648.739 8  86253268.695 7                  21063905.773
  21063908.250    21063908.539                          49.800          46.500

 124053594.743 7  96665134.00944                  23606602.297
                  23606605.414                          42.300          27.200

 108672405.202 8  84522862.607 7                  20307992.648    20307990.629
                  20307995.820                          49.900          46.600

 128988671.121 6 100324594.551 6                  24096177.906    24096175.418
                  24096183.426                          38.500          38.000

 129492367.132 6 100716294.219 5                  24258286.914    24258286.184
                  24258292.551                          39.400          35.600

 19  6 12  0  7 45.0000000  0 18G02R05G15G13G29R06R11G26R12G25G12R04
                                R20G05G21R21R07R22
 122834241.826 7  95715012.64344                  23374565.273
                  23374566.281                          43.800          28.500

 107898911.339 8  83921396.035 7                  20184721.086    20184721.180
                  20184725.195                          51.100          45.900

 124319424.152 7  96872314.311 6                  23657195.211
  23657200.441    23657201.023                          45.600          40.300

 122819180.426 7  95703275.19543                  23371705.219
                  23371710.094                          43.900          22.200

 106424439.669 8  82928094.028 8                  20251869.313
  20251873.547    20251873.543                          49.400          50.100

 108079837.030 7                                  20254116.234    20254113.746
                                                        44.500

 123148242.786 7  95782021.361 6                  23045520.852    23045520.238
                  23045526.020                          43.900          40.200

 127714540.809 6  99517879.305 6                  24303270.938
  24303279.918    24303279.621                          36.900          39.700

 123682680.152 6                                  23153664.055    23153662.621
                                                        39.000

 119843070.354 7  93384250.878 7                  22805373.570
  22805380.266    22805379.793                          44.500          43.300

 128116080.996 7  99830743.129 6                  24379680.719
  24379684.895    24379685.184                          42.900          38.300

 126923008.466 7  98717962.197 6                  23701980.578    23701979.848
                  23701984.102                          42.400          38.100

 110162204.064 7  85681801.093 7                  20600884.375    20600884.113
                  20600890.129                          44.000          46.600

 110702033.392 8  86261360.636 7                  21065882.234
  21065885.648    21065885.586                          49.900          46.700

 124043647.642 7  96657383.02344                  23604709.586
                  23604712.820                          42.100          25.800

 108662850.243 8  84515430.962 7                  20306206.594    20306204.926
                  20306210.117                          50.300          46.800

 128965943.587 6 100306917.600 6                  24091932.438    24091929.949
                  24091937.605                          38.800          37.300

 129476187.701 6 100703710.206 6                  24255256.531    24255255.098
                  24255261.816                          39.900          36.600

 19  6 12  0  7 50.0000000  0 18G02R05G15G13G29R06R11G26R12G25G12R04
                                R20G05G21R21R07R22
 122844556.779 7  95723050.26744                  23376527.672
                  23376529.617                          43.200          29.200

 107906696.814 8  83927451.400 7                  20186177.750    20186177.727
                  20186181.742                          51.200          45.500

 124301913.607 7  96858669.733 6                  23653862.797
  23653867.734    23653868.961                          45.300          39.400

 122806098.661 7  95693081.63043                  23369215.602
                  23369220.242                          43.800          22.800

 106420050.179 8  82924673.647 8                  20251034.055
  20251038.172    20251038.227                          50.100          50.500

 108064855.626 7                                  20251309.586    20251306.156
                                                        44.600

 123161602.986 7  95792412.629 6                  23048019.484    23048019.695
                  23048026.293                          43.100          39.400

 127704776.833 6  99510271.010 6                  24301414.711
  24301421.641    24301421.695                          38.700          39.900

 123684969.330 6                                  23154092.703    23154092.680
                                                        39.700

 119857492.371 7  93395488.805 7                  22808117.844
  22808124.773    22808124.301                          45.100          43.800

 128134897.516 7  99845405.360 6                  24383260.758
  24383266.223    24383266.395                          43.200          38.100

 126943330.871 7  98733768.514 6                  23705776.391    23705774.488
                  23705778.977                          42.100          37.600

 110168930.357 7  85687032.670 7                  20602142.594    20602141.980
                  20602148.230                          43.500          45.900

 110712429.555 8  86269461.536 7                  21067860.672
  21067863.559    21067863.438                          50.300          46.700

 124033702.859 6  96649633.84744                  23602816.078
                  23602820.250                          41.600          27.000

 108653301.639 8  84508004.278 7                  20304422.289    20304421.090
                  20304426.516                          50.700          46.800

 128943216.525 6 100289240.976 6                  24087686.852    24087685.066
                  24087692.840                          38.800          37.200

 129460005.695 6 100691124.281 6                  24252224.742    24252224.480
                  24252231.668                          39.900          36.900

 19  6 12  0  7 55.0000000  0 18G02R05G15G13G29R06R11G26R12G25G12R04
                                R20G05G21R21R07R22
 122854874.146 7  95731089.77144                  23378490.109
                  23378492.641                          42.600          27.800

 107914503.296 8  83933523.103 7                  20187637.852    20187638.531
                  20187641.961                          51.000          45.800

 124284405.535 7  96845027.109 6                  23650531.359
  23650536.238    23650536.879                          45.200          39.900

 122793024.652 7  95682894.07143                  23366727.289
                  23366732.105                          43.400          20.900

 106415673.076 8  82921262.924 8                  20250200.930
  20250204.813    20250204.867                          50.200          50.700

 108049890.670 7                                  20248505.234    20248502.863
                                                        44.400

 123174975.322 7  95802813.309 6                  23050522.109    23050521.730
                  23050526.805                          43.600          38.200

 127695025.665 6  99502672.713 6                  24299559.734
  24299567.367    24299566.660                          38.500          40.400

 123687278.451 6                                  23154526.469    23154524.918
                                                        40.900

 119871922.879 7  93406733.361 7                  22810863.891
  22810871.289    22810870.699                          45.400          43.900

 128153713.831 7  99860067.403 6                  24386841.289
  24386845.992    24386846.867                          43.000          38.000

 126963659.910 7  98749579.976 6                  23709573.633    23709571.145
                  23709575.281                          42.200          38.300

 110175666.124 7  85692271.593 7                  20603401.805    20603400.957
                  20603407.793                          43.200          46.100

 110722837.324 8  86277571.482 7                  21069840.539
  21069843.367    21069843.656                          49.600          47.000

 124023760.491 6  96641886.55644                  23600924.508
                  23600928.445                          41.600          26.700

 108643759.349 8  84500582.496 7                  20302639.078    20302637.879
                  20302643.422                          50.100          46.900

 128920489.814 6 100271564.699 6                  24083439.438    24083438.941
                  24083446.715                          38.100          37.500

 129443821.260 6 100678536.371 6                  24249194.281    24249192.145
                  24249199.449                          40.900          38.300

 19  6 12  0  8  0.0000000  0 18G02R05G15G13G29R06R11G26R12G25G12R04
                                R20G05G21R21R07R22
 122865193.797 7  95739131.04644                  23380454.414
                  23380456.066                          43.200          29.000

 107922330.504 8  83939610.927 7                  20189103.555    20189104.000
                  20189106.961                          51.400          45.900

 124266899.911 7  96831386.362 6                  23647200.531
  23647205.645    23647205.641                          45.900          39.700

 122779958.268 7  95672712.50643                  23364240.992
                  23364245.750                          43.900          21.500

 106411308.228 8  82917861.753 8                  20249370.672
  20249374.086    20249374.434                          50.500          50.100

 108034941.972 7                                  20245702.734    20245700.832
                                                        44.900

 123188359.547 7  95813223.306 6                  23053027.297    23053026.449
                  23053031.758                          43.900          39.400

 127685287.178 6  99495084.292 6                  24297706.992
  24297713.629    24297713.215                          39.400          40.100

 123689607.560 7                                  23154962.945    23154962.098
                                                        42.000

 119886361.779 7  93417984.442 7                  22813610.422
  22813618.465    22813618.578                          45.100          44.200

 128172529.774 7  99874729.181 6                  24390421.266
  24390426.672    24390427.078                          43.200          38.000

 126983995.460 7  98765396.484 6                  23713369.328    23713368.363
                  23713372.266                          42.100          37.900

 110182411.307 7  85697517.835 7                  20604662.695    20604661.965
                  20604668.449                          43.500          46.600

 110733256.584 8  86285690.389 7                  21071822.305
  21071826.246    21071826.359                          49.600          46.600

 124013820.387 6  96634141.01644                  23599032.703
                  23599036.348                          41.600          25.800

 108634223.301 8  84493165.576 7                  20300856.758    20300855.793
                  20300861.453                          49.800          46.200

 128897763.740 6 100253888.899 6                  24079192.563    24079193.125
                  24079201.250                          37.800          37.400

 129427634.323 6 100665946.524 6                  24246161.891    24246161.160
                  24246167.879                          41.700          36.700

 19  6 12  0  8  5.0000000  0 18G02R05G15G13G29R06R11G26R12G25G12R04
                                R20G05G21R21R07R22
 122875515.837 7  95747174.18644                  23382418.242
                  23382420.715                          42.500          28.000

 107930178.593 8  83945714.993 7                  20190572.273    20190571.777
                  20190574.391                          51.600          46.200

 124249396.758 7  96817747.557 6                  23643869.461
  23643874.281    23643874.805                          45.900          40.100

 122766899.579 7  95662536.87343                  23361756.086
                  23361760.727                          43.700          21.700

 106406955.733 8  82914470.190 8                  20248542.484
  20248546.133    20248546.363                          50.500          50.200

 108020009.632 7                                  20242904.906    20242902.770
                                                        45.300

 123201755.778 7  95823642.555 6                  23055532.891    23055533.570
                  23055539.348                          43.700          38.200

 127675561.462 6  99487505.809 6                  24295855.391
  24295863.082    24295862.609                          38.800          40.500

 123691956.690 7                                  23155402.875    23155402.145
                                                        42.500

 119900809.090 7  93429242.067 7                  22816359.539
  22816367.582    22816367.813                          44.500          43.700

 128191345.439 7  99889390.725 6                  24394001.813
  24394007.102    24394007.566                          43.300          38.100

 127004337.459 6  98781218.042 6                  23717166.891    23717167.688
                  23717171.824                          41.700          37.900

 110189165.807 7  85702771.338 7                  20605926.469    20605925.738
                  20605931.754                          43.600          46.600

 110743687.352 8  86293818.251 7                  21073807.516
  21073811.691    21073811.746                          48.900          47.100

 124003882.614 7  96626397.33344                  23597141.273
                  23597145.094                          42.000          25.400

 108624693.509 8  84485753.516 7                  20299076.000    20299074.684
                  20299080.109                          50.000          46.300

 128875038.068 6 100236213.405 6                  24074948.133    24074947.637
                  24074955.762                          38.100          36.800

 129411444.763 6 100653354.637 6                  24243129.211    24243128.598
                  24243135.902                          40.200          36.800

 19  6 12  0  8 10.0000000  0 18G02R05G15G13G29R06R11G26R12G25G12R04
                                R20G05G21R21R07R22
 122885840.090 7  95755219.06844                  23384382.844
                  23384385.199                          42.100          27.400

 107938047.355 8  83951835.140 7                  20192043.672    20192044.234
                  20192046.727                          51.800          45.700

 124231896.000 7  96804110.620 6                  23640539.594
  23640544.590    23640544.703                          45.800          40.100

 122753848.525 7  95652367.24043                  23359273.070
                  23359276.949                          44.500          22.200

 106402615.470 8  82911088.165 8                  20247715.711
  20247720.063    20247720.234                          50.100          50.000

 108005093.761 7                                  20240109.852    20240107.246
                                                        44.500

 123215163.959 7  95834071.137 6                  23058042.703    23058042.797
                  23058048.223                          43.800          37.200

 127665848.448 6  99479937.229 6                  24294005.914
  24294014.543    24294013.895                          39.700          40.900

 123694325.616 7                                  23155846.055    23155845.914
                                                        42.700

 119915264.698 7  93440506.176 7                  22819110.625
  22819118.551    22819118.547                          45.000          44.300

 128210160.754 7  99904051.991 6                  24397581.602
  24397587.711    24397587.941                          43.600          39.000

 127024685.984 7  98797044.656 6                  23720968.414    23720968.035
                  23720972.406                          42.000          37.900

 110195929.684 7  85708032.143 7                  20607192.148    20607190.715
                  20607196.492                          44.100          45.900

 110754129.475 8  86301954.965 7                  21075793.898
  21075799.188    21075798.773                          49.000          47.200

 123993947.081 7  96618655.36144                  23595250.938
                  23595255.051                          42.000          25.800

 108615169.904 8  84478346.255 7                  20297296.680    20297295.012
                  20297300.203                          50.300          47.100

 128852312.835 6 100218538.199 6                  24070702.609    24070702.348
                  24070710.594                          37.700          37.500

 129395252.609 6 100640760.765 5                  24240096.148    24240095.184
                  24240102.020                          39.600          35.800

 19  6 12  0  8 15.0000000  0 18G02R05G15G13G29R06R11G26R12G25G12R04
                                R20G05G21R21R07R22
 122896166.718 7  95763265.78644                  23386348.711
                  23386349.895                          42.300          27.400

 107945937.013 8  83957971.533 7                  20193519.414    20193520.094
                  20193522.703                          51.600          46.200

 124214397.737 7  96790475.612 6                  23637208.609
  23637214.426    23637214.949                          44.300          39.900

 122740805.192 7  95642203.60043                  23356789.625
                  23356795.027                          43.800          21.800

 106398287.594 8  82907715.801 8                  20246893.055
  20246896.176    20246896.641                          51.000          50.800

 107990194.444 7                                  20237318.586    20237315.273
                                                        44.700

 123228584.042 7  95844509.006 6                  23060553.641    23060553.852
                  23060558.926                          44.100          37.700

 127656148.219 6  99472378.615 6                  24292160.156
  24292168.902    24292168.723                          38.600          40.500

 123696714.536 7                                  23156293.391    23156293.012
                                                        42.600

 119929728.706 7  93451776.829 7                  22821863.336
  22821871.262    22821871.141                          44.700          43.300

 128228975.687 7  99918712.962 6                  24401162.375
  24401168.016    24401168.480                          44.500          37.600

 127045040.986 6  98812876.311 6                  23724768.898    23724768.520
                  23724773.008                          41.300          37.700

 110202702.753 7  85713300.050 7                  20608458.820    20608457.504
                  20608463.281                          43.300          45.600

 110764583.074 8  86310100.639 7                  21077782.828
  21077788.117    21077788.172                          48.900          47.000

 123984013.878 6  96610915.22244                  23593360.695
                  23593364.574                          41.600          26.800

 108605652.593 8  84470943.921 7                  20295517.148    20295515.832
                  20295521.141                          50.300          46.700

 128829588.168 6 100200863.492 6                  24066457.602    24066457.461
                  24066466.523                          37.600          37.800

 129379057.961 6 100628164.964 6                  24237062.367    24237061.754
                  24237068.238                          40.000          36.400

 19  6 12  0  8 20.0000000  0 18G02R05G15G13G29R06R11G26R12G25G12R04
                                R20G05G21R21R07R22
 122906495.728 7  95771314.37044                  23388314.148
                  23388315.391                          42.600          27.400

 107953847.493 8  83964124.120 7                  20194999.172    20194999.031
                  20195002.227                          50.800          45.900

 124196902.090 7  96776842.662 6                  23633879.250
  23633885.008    23633885.355                          45.500          39.600

 122727769.613 7  95632046.03043                  23354309.703
                  23354314.227                          43.800          21.500

 106393972.074 8  82904353.055 8                  20246071.672
  20246075.320    20246075.727                          50.200          50.400

 107975311.724 7                                  20234528.984    20234526.379
                                                        44.600

 123242016.124 7  95854956.156 6                  23063067.555    23063067.059
                  23063072.488                          44.100          37.500

 127646460.844 6  99464829.993 6                  24290317.719
  24290324.414    24290324.703                          38.600          40.000

 123699123.487 7                                  23156742.961    23156741.996
                                                        42.200

 119944201.160 7  93463054.055 7                  22824617.570
  22824625.379    22824625.375                          44.500          43.600

 128247790.311 7  99933373.713 6                  24404742.875
  24404748.105    24404749.039                          43.900          37.600

 127065402.424 6  98828712.958 6                  23728573.750    23728571.848
                  23728575.750                          41.700          36.800

 110209485.407 7  85718575.475 7                  20609725.469    20609725.797
                  20609731.574                          43.900          46.100

 110775048.177 8  86318255.262 7                  21079773.570
  21079779.621    21079779.500                          48.300          47.000

 123974083.122 7  96603176.98044                  23591470.922
                  23591475.152                          42.100          27.400

 108596141.724 8  84463546.577 7                  20293740.836    20293739.051
                  20293744.359                          50.400          46.900

 128806864.016 6 100183189.184 6                  24062213.141    24062212.293
                  24062220.887                          38.300          37.300

 129362860.926 6 100615567.258 5                  24234030.211    24234027.254
                  24234033.617                          40.800          34.000

 19  6 12  0  8 25.0000000  0 18G02R05G15G13G29R06R11G26R12G25G12R04
                                R20G05G21R21R07R22
 122916827.056 7  95779364.75144                  23390279.086
                  23390281.031                          42.100          26.900

 107961778.632 8  83970292.790 7                  20196481.641    20196481.852
                  20196485.867                          51.200          46.000

 124179408.876 7  96763211.601 6                  23630550.609
  23630556.250    23630556.656                          43.800          38.500

 122714741.730 7  95621894.43043                  23351830.477
                  23351834.766                          44.300          22.000

 106389668.867 8  82900999.907 8                  20245252.266
  20245256.734    20245256.848                          50.400          51.100

 107960445.337 7                                  20231743.250    20231740.293
                                                        44.700

 123255460.002 7  95865412.537 6                  23065583.977    23065583.598
                  23065587.852                          43.700          37.900

 127636786.214 6  99457291.306 6                  24288477.063
  24288484.168    24288484.105                          39.200          40.400

 123701552.259 7                                  23157195.109    23157196.023
                                                        42.000

 119958681.880 7  93474337.734 7                  22827372.539
  22827380.230    22827380.285                          44.700          43.600

 128266604.538 7  99948034.136 6                  24408323.008
  24408328.414    24408328.527                          43.900          38.300

 127085770.289 6  98844554.621 6                  23732377.141    23732374.066
                  23732377.848                          40.700          37.600

 110216277.331 7  85723858.071 7                  20610996.234    20610995.504
                  20611001.988                          43.300          46.100

 110785524.712 7  86326418.803 7                  21081767.359
  21081772.707    21081772.820                          47.700          47.300

 123964154.600 6  96595440.49744                  23589581.195
                  23589585.777                          41.100          27.800

 108586637.068 8  84456154.066 7                  20291964.641    20291963.324
                  20291968.398                          50.500          46.500

 128784140.481 6 100165515.332 6                  24057967.242    24057966.863
                  24057975.695                          37.600          37.100

 129346661.357 6 100602967.544 5                  24230995.117    24230991.336
                  24230997.938                          39.900          33.900

 19  6 12  0  8 30.0000000  0 18G02R05G15G13G29R06R11G26R12G25G12R04
                                R20G05G21R21R07R22
 122927160.730 7  95787416.97444                  23392246.719
                  23392247.609                          42.600          27.400

 107969730.571 8  83976477.638 7                  20197968.648    20197968.387
                  20197973.465                          50.400          46.000

 124161918.285 7  96749582.583 6                  23627221.766
  23627227.934    23627227.871                          44.900          38.900

 122701721.659 7  95611748.91443                  23349352.391
                  23349357.383                          43.800          22.500

 106385378.105 8  82897656.453 8                  20244436.211
  20244440.387    20244440.383                          50.500          50.600

 107945595.330 7                                  20228959.539    20228957.754
                                                        44.900

 123268915.791 7  95875878.145 6                  23068103.133    23068101.934
                  23068106.656                          43.200          38.600

 127627124.427 6  99449762.665 6                  24286637.125
  24286645.578    24286645.926                          38.600          40.500

 123704001.005 6                                  23157653.117    23157653.563
                                                        41.100

 119973170.950 7  93485627.922 7                  22830129.914
  22830137.781    22830137.895                          44.500          43.400

 128285418.394 7  99962694.263 6                  24411903.070
  24411908.535    24411908.941                          43.500          38.100

 127106144.453 6  98860401.180 6                  23736181.375    23736178.770
                  23736182.434                          41.300          36.600

 110223078.719 7  85729148.030 7                  20612268.258    20612267.293
                  20612273.660                          43.800          46.600

 110796012.702 8  86334591.271 7                  21083763.156
  21083769.383    21083769.086                          48.100          47.000

 123954228.481 7  96587705.87044                  23587692.750
                  23587697.156                          42.300          27.800

 108577138.816 8  84448766.527 7                  20290190.102    20290188.434
                  20290193.742                          50.500          47.000

 128761417.378 6 100147841.853 6                  24053722.930    24053722.316
                  24053730.914                          38.100          37.900

 129330459.233 6 100590365.885 5                  24227959.102    24227958.020
                  24227964.387                          39.000          34.800

 19  6 12  0  8 35.0000000  0 18G02R05G15G13G29R06R11G26R12G25G12R04
                                R20G05G21R21R07R22
 122937496.720 7  95795470.99944                  23394212.391
                  23394214.570                          42.500          26.400

 107977703.263 8  83982678.611 7                  20199459.273    20199460.070
                  20199465.613                          50.200          46.300

 124144430.297 7  96735955.576 6                  23623894.375
  23623899.078    23623900.070                          45.800          38.300

 122688709.351 7  95601609.47143                  23346876.961
                  23346881.426                          44.800          21.800

 106381099.709 8  82894322.635 8                  20243621.375
  20243626.313    20243626.133                          50.200          50.700

 107930761.949 7                                  20226180.055    20226177.918
                                                        45.000

 123282383.416 7  95886352.968 6                  23070622.328    23070621.480
                  23070626.320                          43.900          38.400

 127617475.437 6  99442243.964 6                  24284802.430
  24284809.066    24284809.473                          39.600          40.700

 123706469.590 6                                  23158114.609    23158115.641
                                                        40.400

 119987668.355 7  93496924.599 7                  22832888.188
  22832896.406    22832896.168                          43.700          44.400

 128304231.883 7  99977354.123 6                  24415482.672
  24415488.254    24415488.719                          44.100          37.900

 127126525.100 6  98876252.804 6                  23739987.430    23739985.645
                  23739989.078                          40.700          36.300

 110229889.516 7  85734445.329 7                  20613541.883    20613541.387
                  20613547.637                          44.300          46.200

 110806512.100 7  86342772.624 7                  21085760.859
  21085767.145    21085766.730                          47.500          47.200

 123944304.756 6  96579973.10644                  23585804.453
                  23585808.742                          41.700          27.100

 108567646.797 8  84441383.860 7                  20288416.117    20288414.332
                  20288419.406                          50.300          46.900

 128738694.886 6 100130168.812 6                  24049478.813    24049477.730
                  24049485.973                          38.300          36.700

 129314254.641 6 100577762.346 5                  24224923.305    24224920.816
                  24224926.594                          38.600          34.100

 19  6 12  0  8 40.0000000  0 18G02R05G15G13G29R06R11G26R12G25G12R04
                                R20G05G21R21R07R22
 122947835.059 7  95803526.86744                  23396180.000
                  23396181.770                          42.700          26.900

 107985696.666 8  83988895.731 7                  20200955.625    20200955.953
                  20200961.379                          49.900          46.100

 124126944.835 7  96722330.553 6                  23620566.828
  23620572.176    23620572.992                          45.500          38.200

 122675704.821 7  95591476.06643                  23344402.922
                  23344406.859                          45.400          22.200

 106376833.686 8  82890998.465 8                  20242810.391
  20242814.156    20242814.035                          50.600          50.600

 107915945.077 7                                  20223404.633    20223401.086
                                                        45.600

 123295862.931 7  95896837.032 6                  23073145.102    23073144.371
                  23073149.918                          43.500          37.800

 127607839.240 6  99434735.248 6                  24282968.250
  24282976.293    24282976.055                          38.400          40.500

 123708958.134 6                                  23158579.938    23158580.148
                                                        40.300

 120002174.039 7  93508227.717 7                  22835649.344
  22835656.977    22835656.445                          44.400          44.100

 128323044.946 7  99992013.648 6                  24419062.914
  24419068.203    24419068.785                          43.400          37.700

 127146912.094 6  98892109.350 6                  23743794.117    23743792.918
                  23743796.703                          40.400          37.200

 110236709.654 7  85739749.873 7                  20614817.164    20614816.434
                  20614822.801                          44.100          46.800

 110817022.891 7  86350962.848 7                  21087760.828
  21087766.586    21087766.523                          47.900          46.900

 123934383.301 7  96572242.10144                  23583917.039
                  23583920.332                          43.400          28.000

 108558161.162 8  84434006.145 7                  20286643.219    20286642.254
                  20286647.328                          50.800          46.900

 128715972.965 6 100112496.206 6                  24045234.000    24045233.270
                  24045241.043                          38.300          37.600

 129298047.437 6 100565156.745 5                  24221884.922    24221883.957
                  24221891.027                          37.600          35.700

 19  6 12  0  8 45.0000000  0 18G02R05G15G13G29R06R11G26R12G25G12R04
                                R20G05G21R21R07R22
 122958175.685 6  95811584.47644                  23398147.656
                  23398150.012                          41.300          27.000

 107993710.836 8  83995128.964 7                  20202454.594    20202455.156
                  20202460.465                          50.000          46.300

 124109461.975 7  96708707.551 6                  23617241.008
  23617244.891    23617246.000                          45.400          37.500

 122662708.065 7  95581348.72643                  23341930.195
                  23341933.664                          45.400          22.300

 106372580.052 8  82887683.939 8                  20242000.859
  20242004.859    20242005.031                          51.600          50.900

 107901144.614 7                                  20220630.063    20220627.574
                                                        45.300

 123309354.196 7  95907330.228 6                  23075670.531    23075668.980
                  23075674.055                          43.400          37.800

 127598215.798 6  99427236.463 6                  24281135.172
  24281144.797    24281144.793                          38.300          40.100

 123711466.573 6                                  23159049.336    23159049.781
                                                        39.700

 120016687.986 7  93519537.268 7                  22838411.578
  22838418.859    22838418.445                          44.100          43.700

 128341857.542 7 100006672.803 6                  24422642.969
  24422648.082    24422648.430                          44.100          38.100

 127167305.521 6  98907970.883 6                  23747600.258    23747600.469
                  23747604.367                          39.400          37.100

 110243539.248 7  85745061.761 7                  20616095.164    20616094.668
                  20616100.918                          43.700          46.600

 110827545.053 8  86359161.935 7                  21089763.578
  21089769.160    21089768.863                          48.200          47.000

 123924464.135 7  96564512.89944                  23582030.078
                  23582032.609                          42.900          26.600

 108548681.838 8  84426633.329 7                  20284872.383    20284870.363
                  20284875.320                          51.000          46.700

 128693251.657 6 100094824.130 6                  24040989.969    24040989.238
                  24040997.246                          37.700          37.600

 129281837.821 6 100552549.298 5                  24218850.258    24218849.059
                  24218854.133                          39.200          35.400

 19  6 12  0  8 50.0000000  0 18G02R05G15G13G29R06R11G26R12G25G12R04
                                R20G05G21R21R07R22
 122968518.709 6  95819643.98644                  23400116.031
                  23400118.387                          41.800          28.300

 108001745.668 8  84001378.290 7                  20203958.344    20203957.496
                  20203962.570                          50.000          45.800

 124091981.799 7  96695086.632 6                  23613913.500
  23613918.379    23613919.547                          44.800          37.500

 122649719.181 7  95571227.53843                  23339458.227
                  23339461.871                          43.700          22.300

 106368338.861 8  82884379.119 8                  20241193.586
  20241198.230    20241198.227                          50.800          51.200

 107886360.901 7                                  20217859.523    20217857.270
                                                        45.700

 123322857.321 7  95917832.646 6                  23078195.320    23078195.297
                  23078201.074                          42.600          38.100

 127588605.306 6  99419747.784 6                  24279306.234
  24279315.215    24279315.855                          37.600          39.900

 123713994.972 6                                  23159521.945    23159521.332
                                                        38.500

 120031210.242 7  93530853.309 7                  22841175.055
  22841181.574    22841181.863                          44.300          43.600

 128360669.761 7 100021331.655 6                  24426223.344
  24426227.754    24426228.512                          44.400          37.600

 127187705.212 6  98923837.265 6                  23751411.000    23751409.801
                  23751414.406                          40.300          37.300

 110250378.150 7  85750380.904 7                  20617373.539    20617372.223
                  20617378.707                          43.900          46.000

 110838078.658 8  86367369.947 7                  21091768.242
  21091773.121    21091773.117                          48.100          46.500

 123914547.302 7  96556785.48444                  23580142.703
                  23580145.293                          42.800          27.800

 108539208.939 8  84419265.534 7                  20283103.023    20283100.535
                  20283105.258                          51.100          46.800

 128670530.891 6 100077152.420 6                  24036746.523    24036745.207
                  24036752.863                          38.000          37.900

 129265625.760 6 100539939.961 6                  24215812.172    24215811.793
                  24215817.340                          40.000          36.400

 19  6 12  0  8 55.0000000  0 18G02R05G15G13G29R06R11G26R12G25G12R04
                                R20G05G21R21R07R22
 122978864.128 6  95827705.33344                  23402084.961
                  23402086.438                          41.900          26.500

 108009801.249 8  84007643.742 7                  20205465.344    20205464.965
                  20205469.922                          50.600          46.100

 124074504.263 7  96681467.770 6                  23610588.711
  23610592.477    23610593.469                          45.800          36.800

 122636738.116 7  95561112.42843                  23336988.016
                  23336992.246                          44.300          22.200

 106364110.072 8  82881083.962 8                  20240389.516
  20240393.398    20240393.570                          51.900          51.000

 107871593.714 7                                  20215091.984    20215090.199
                                                        45.400

 123336372.216 7  95928344.255 6                  23080725.461    23080725.672
                  23080730.746                          43.000          38.600

 127579007.617 6  99412269.037 6                  24277478.883
  24277489.211    24277490.086                          36.000          39.200

 123716543.303 6                                  23159999.039    23159998.543
                                                        37.700

 120045740.800 7  93542175.811 7                  22843939.625
  22843947.609    22843947.605                          44.500          43.900

 128379481.525 7 100035990.171 6                  24429802.195
  24429807.660    24429808.125                          43.900          37.500

 127208111.230 6  98939708.630 6                  23755221.852    23755221.473
                  23755225.961                          39.500          36.700

 110257226.536 7  85755707.434 7                  20618653.883    20618653.504
                  20618660.105                          43.900          46.200

 110848623.614 8  86375586.798 7                  21093775.523
  21093780.402    21093780.164                          49.600          46.700

 123904632.790 7  96549059.91144                  23578256.586
                  23578258.883                          43.600          27.700

 108529742.439 8  84411902.688 7                  20281332.938    20281331.152
                  20281335.758                          51.000          46.700

 128647810.900 6 100059481.341 6                  24032501.898    24032499.996
                  24032508.355                          38.400          38.400

 129249411.259 6 100527328.691 5                  24212776.484    24212775.285
                  24212779.773                          40.900          35.700

 19  6 12  0  9  0.0000000  0 18G02R05G15G13G29R06R11G26R12G25G12R04
                                R20G05G21R21R07R22
 122989211.848 6  95835768.49244                  23404053.070
                  23404056.480                          41.300          27.200

 108017877.512 8  84013925.277 7                  20206976.172    20206976.266
                  20206981.105                          50.300          46.200

 124057029.343 7  96667850.948 6                  23607263.016
  23607266.957    23607267.539                          45.800          36.900

 122623764.857 7  95551003.41343                  23334518.438
                  23334522.785                          44.100          21.300

 106359893.643 8  82877798.424 8                  20239586.891
  20239591.359    20239591.473                          50.300          50.800

 107856842.975 7                                  20212327.828    20212325.340
                                                        44.900

 123349898.835 7  95938864.922 6                  23083256.570    23083255.605
                  23083261.504                          42.900          38.900

 127569422.754 6  99404800.316 6                  24275654.227
  24275665.727    24275665.840                          37.100          40.200

 123719111.518 6                                  23160478.922    23160479.953
                                                        38.600

 120060279.547 7  93553504.703 7                  22846707.164
  22846714.270    22846714.031                          43.900          43.700

 128398292.787 7 100050648.289 6                  24433382.766
  24433387.820    24433388.285                          43.300          37.400

 127228523.695 6  98955584.948 6                  23759032.773    23759032.867
                  23759037.352                          40.100          36.500

 110264084.179 7  85761041.160 7                  20619936.336    20619935.840
                  20619942.441                          44.100          46.200

 110859179.927 8  86383812.504 7                  21095784.836
  21095789.363    21095788.891                          49.300          46.300

 123894720.505 7  96541336.04944                  23576369.859
                  23576371.863                          43.400          28.700

 108520282.247 8  84404544.766 7                  20279565.328    20279564.246
                  20279569.203                          51.200          47.000

 128625091.489 6 100041810.703 6                  24028257.695    24028256.496
                  24028264.387                          39.400          36.900

 129233194.256 6 100514715.425 6                  24209736.469    24209737.031
                  24209741.871                          40.900          37.300

 19  6 12  0  9  5.0000000  0 18G02R05G15G13G29R06R11G26R12G25G12R04
                                R20G05G21R21R07R22
 122999561.891 6  95843833.46244                  23406023.633
                  23406025.871                          41.700          28.900

 108025974.392 8  84020222.846 7                  20208490.898    20208489.934
                  20208495.125                          50.500          46.700

 124039557.065 7  96654236.193 6                  23603937.719
  23603943.301    23603943.004                          44.300          38.000

 122610799.491 7  95540900.50643                  23332050.789
                  23332055.957                          43.400          22.000

 106355689.627 8  82874522.572 8                  20238786.820
  20238791.230    20238791.344                          50.300          51.000

 107842108.945 7                                  20209566.617    20209564.246
                                                        45.000

 123363437.141 7  95949394.728 6                  23085790.305    23085789.340
                  23085795.473                          42.800          38.300

 127559850.714 6  99397341.620 6                  24273833.227
  24273844.785    24273844.430                          36.200          40.200

 123721699.610 6                                  23160965.500    23160965.359
                                                        38.400

 120074826.531 7  93564840.022 7                  22849474.875
  22849481.805    22849481.332                          44.100          43.000

 128417103.591 7 100065306.042 6                  24436962.586
  24436968.051    24436967.695                          43.600          38.400

 127248942.434 6  98971466.171 6                  23762846.664    23762845.816
                  23762849.953                          40.200          36.100

 110270951.319 7  85766382.260 7                  20621220.555    20621220.176
                  20621226.309                          43.900          46.300

 110869747.616 8  86392047.069 7                  21097795.578
  21097800.281    21097800.043                          49.000          47.500

 123884810.583 7  96533614.04044                  23574484.195
                  23574485.730                          43.600          27.200

 108510828.481 8  84397191.849 7                  20277799.133    20277796.645
                  20277801.367                          51.100          46.800

 128602372.737 6 100024140.601 6                  24024012.539    24024012.043
                  24024019.113                          39.400          36.100

 129216974.772 6 100502100.307 6                  24206700.422    24206698.988
                  24206704.063                          41.300          38.000

 19  6 12  0  9 10.0000000  0 18G02R05G15G13G29R06R11G26R12G25G12R04
                                R20G05G21R21R07R22
 123009914.347 6  95851900.31444                  23407993.109
                  23407995.992                          41.500          26.800

 108034091.999 8  84026536.546 7                  20210008.930    20210008.668
                  20210013.391                          50.400          46.200

 124022087.498 7  96640623.545 6                  23600613.484
  23600618.539    23600619.004                          45.200          38.300

 122597842.008 7  95530803.79843                  23329586.320
                  23329589.906                          44.700          21.700

 106351498.072 8  82871256.433 8                  20237989.953
  20237993.250    20237993.715                          51.200          51.100

 107827391.624 7                                  20206808.375    20206806.121
                                                        44.900

 123376987.227 7  95959933.656 6                  23088326.508    23088325.660
                  23088331.793                          42.700          39.700

 127550291.651 6  99389892.993 6                  24272016.109
  24272025.617    24272025.438                          38.400          40.800

 123724307.507 6                                  23161454.227    23161454.203
                                                        40.000

 120089381.781 7  93576181.769 7                  22852244.039
  22852251.203    22852251.434                          44.200          43.900

 128435913.917 7 100079963.451 6                  24440541.789
  24440546.375    24440547.016                          43.400          37.700

 127269367.274 6  98987352.164 6                  23766660.781    23766659.230
                  23766663.484                          40.100          36.400

 110277827.831 7  85771730.671 7                  20622507.836    20622505.934
                  20622511.828                          43.800          46.000

 110880326.693 8  86400290.498 7                  21099809.094
  21099813.680    21099813.266                          49.100          46.200

 123874903.000 7  96525893.83844                  23572598.227
                  23572600.875                          43.700          27.900

 108501381.159 8  84389843.925 7                  20276033.328    20276031.543
                  20276036.266                          51.200          46.800

 128579654.875 6 100006471.133 6                  24019769.000    24019768.270
                  24019776.043                          39.200          36.500

 129200752.833 6 100489483.216 6                  24203662.258    24203659.770
                  24203664.727                          40.200          36.000

 19  6 12  0  9 15.0000000  0 18G02R05G15G13G29R06R11G26R12G25G12R04
                                R20G05G21R21R07R22
 123020269.073 6  95859968.92044                  23409963.883
                  23409966.531                          41.400          27.600

 108042230.233 8  84032866.286 7                  20211531.813    20211532.492
                  20211536.746                          50.300          46.000

 124004620.611 7  96627013.022 6                  23597288.984
  23597295.094    23597295.441                          44.700          38.400

 122584892.349 7  95520713.14943                  23327121.656
                  23327125.535                          44.400          22.000

 106347318.905 8  82867999.928 8                  20237194.039
  20237197.922    20237198.094                          50.800          51.000

 107812690.842 7                                  20204052.859    20204051.309
                                                        44.700

 123390548.870 7  95970481.616 6                  23090863.047    23090863.609
                  23090869.504                          43.000          39.800

 127540745.384 6  99382454.338 6                  24270199.570
  24270209.605    24270209.367                          37.700          41.300

 123726935.272 6                                  23161948.438    23161948.297
                                                        40.600

 120103945.191 7  93587529.881 7                  22855015.984
  22855023.734    22855023.496                          43.900          43.000

 128454723.676 7 100094620.389 6                  24444120.438
  24444126.840    24444126.719                          43.000          38.400

 127289798.490 6  99003243.089 5                  23770476.391    23770475.191
                  23770478.625                          40.400          35.300

 110284713.808 7  85777086.403 7                  20623794.289    20623793.910
                  20623799.809                          43.700          44.900

 110890917.040 8  86408542.716 7                  21101824.898
  21101827.961    21101828.074                          49.300          46.600

 123864997.706 7  96518175.44244                  23570713.734
                  23570715.328                          43.200          27.000

 108491940.187 8  84382500.962 7                  20274269.281    20274267.262
                  20274272.102                          51.200          47.500

 128556937.587 6  99988802.148 6                  24015524.438    24015524.297
                  24015532.305                          38.300          36.600

 129184528.281 6 100476864.093 6                  24200623.367    24200621.348
                  24200625.719                          39.700          36.800

 19  6 12  0  9 20.0000000  0 18G02R05G15G13G29R06R11G26R12G25G12R04
                                R20G05G21R21R07R22
 123030626.098 6  95868039.32044                  23411934.766
                  23411937.414                          41.100          27.300

 108050389.095 8  84039212.065 7                  20213057.953    20213058.633
                  20213063.004                          50.600          46.000

 123987156.376 7  96613404.550 6                  23593965.898
  23593972.418    23593972.590                          45.000          38.700

 122571950.568 7  95510628.63543                  23324658.766
                  23324662.703                          44.600          22.300

 106343152.158 8  82864753.117 8                  20236400.750
  20236405.160    20236405.273                          50.700          50.700

 107798006.723 7                                  20201300.961    20201298.941
                                                        45.000

 123404122.277 7  95981038.708 6                  23093404.586    23093403.738
                  23093409.281                          44.000          40.500

 127531211.929 6  99375025.682 6                  24268385.266
  24268395.125    24268394.887                          37.700          41.200

 123729582.811 6                                  23162444.844    23162444.703
                                                        41.200

 120118516.732 7  93598884.329 7                  22857788.313
  22857796.414    22857796.234                          43.500          43.400

 128473532.891 7 100109276.910 6                  24447699.086
  24447706.250    24447706.188                          42.400          39.200

 127310235.794 6  99019138.783 5                  23774292.094    23774291.832
                  23774294.797                          40.700          34.800

 110291609.043 7  85782449.384 7                  20625084.711    20625083.160
                  20625088.469                          44.900          44.900

 110901518.653 8  86416803.714 7                  21103842.586
  21103846.352    21103846.055                          49.900          46.300

 123855094.721 7  96510458.81743                  23568828.305
                  23568830.836                          42.800          23.600

 108482505.590 8  84375162.938 7                  20272505.891    20272505.160
                  20272509.648                          50.800          46.700

 128534220.856 6  99971133.596 6                  24011280.555    24011280.648
                  24011289.008                          38.500          36.300

 129168301.251 6 100464243.118 6                  24197582.805    24197580.082
                  24197584.688                          37.500          37.100

